$GPGGA,000103.799,,,,,0,00,,,M,,M,,*7D
$GPGSA,A,1,,,,,,,,,,,,,,,*1E
$GPGSV,1,1,00*79
$GPRMC,000103.799,V,,,,,0.00,0.00,060180,,,N*47
$GPVTG,0.00,T,,M,0.00,N,0.00,K,N*32
$GPGGA,000104.799,,,,,0,00,,,M,,M,,*7A
$GPGSA,A,1,,,,,,,,,,,,,,,*1E
$GPRMC,000104.799,V,,,,,0.00,0.00,060180,,,N*40
$GPVTG,0.00,T,,M,0.00,N,0.00,K,N*32
$GPGGA,000105.799,,,,,0,00,,,M,,M,,*7B
$GPGSA,A,1,,,,,,,,,,,,,,,*1E
$GPRMC,000105.799,V,,,,,0.00,0.00,060180,,,N*41
$GPVTG,0.00,T,,M,0.00,N,0.00,K,N*32
$GPGGA,000106.799,,,,,0,00,,,M,,M,,*78
$GPGSA,A,1,,,,,,,,,,,,,,,*1E
$GPRMC,000106.799,V,,,,,0.00,0.00,060180,,,N*42
$GPVTG,0.00,T,,M,0.00,N,0.00,K,N*32
$GPGGA,000107.799,,,,,0,00,,,M,,M,,*79
$GPGSA,A,1,,,,,,,,,,,,,,,*1E
$GPRMC,000107.799,V,,,,,0.00,0.00,060180,,,N*43
$GPVTG,0.00,T,,M,0.00,N,0.00,K,N*32
$GPGGA,000108.799,,,,,0,00,,,M,,M,,*76
$GPGSA,A,1,,,,,,,,,,,,,,,*1E
$GPGSV,1,1,00*79
$GPRMC,000108.799,V,,,,,0.00,0.00,060180,,,N*4C
$GPVTG,0.00,T,,M,0.00,N,0.00,K,N*32
$GPGGA,000109.799,,,,,0,00,,,M,,M,,*77
$GPGSA,A,1,,,,,,,,,,,,,,,*1E
$GPRMC,000109.799,V,,,,,0.00,0.00,060180,,,N*4D
$GPVTG,0.00,T,,M,0.00,N,0.00,K,N*32
$GPGGA,000110.799,,,,,0,00,,,M,,M,,*7F
$GPGSA,A,1,,,,,,,,,,,,,,,*1E
$GPRMC,000110.799,V,,,,,0.00,0.00,060180,,,N*45
$GPVTG,0.00,T,,M,0.00,N,0.00,K,N*32
$GPGGA,000111.799,,,,,0,00,,,M,,M,,*7E
$GPGSA,A,1,,,,,,,,,,,,,,,*1E
$GPRMC,000111.799,V,,,,,0.00,0.00,060180,,,N*44
$GPVTG,0.00,T,,M,0.00,N,0.00,K,N*32
$GPGGA,000112.799,,,,,0,00,,,M,,M,,*7D
$GPGSA,A,1,,,,,,,,,,,,,,,*1E
$GPRMC,000112.799,V,,,,,0.00,0.00,060180,,,N*47
$GPVTG,0.00,T,,M,0.00,N,0.00,K,N*32
$GPGGA,000113.799,,,,,0,00,,,M,,M,,*7C
$GPGSA,A,1,,,,,,,,,,,,,,,*1E
$GPGSV,1,1,00*79
$GPRMC,000113.799,V,,,,,0.00,0.00,060180,,,N*46
$GPVTG,0.00,T,,M,0.00,N,0.00,K,N*32
$GPGGA,000114.799,,,,,0,00,,,M,,M,,*7B
$GPGSA,A,1,,,,,,,,,,,,,,,*1E
$GPRMC,000114.799,V,,,,,0.00,0.00,060180,,,N*41
$GPVTG,0.00,T,,M,0.00,N,0.00,K,N*32
$GPGGA,000115.799,,,,,0,00,,,M,,M,,*7A
$GPGSA,A,1,,,,,,,,,,,,,,,*1E
$GPRMC,000115.799,V,,,,,0.00,0.00,060180,,,N*40
$GPVTG,0.00,T,,M,0.00,N,0.00,K,N*32
$GPGGA,000116.799,,,,,0,00,,,M,,M,,*79
$GPGSA,A,1,,,,,,,,,,,,,,,*1E
$GPRMC,000116.799,V,,,,,0.00,0.00,060180,,,N*43
$GPVTG,0.00,T,,M,0.00,N,0.00,K,N*32
$GPGGA,000117.799,,,,,0,00,,,M,,M,,*78
$GPGSA,A,1,,,,,,,,,,,,,,,*1E
$GPRMC,000117.799,V,,,,,0.00,0.00,060180,,,N*42
$GPVTG,0.00,T,,M,0.00,N,0.00,K,N*32
$GPGGA,000118.799,,,,,0,00,,,M,,M,,*77
$GPGSA,A,1,,,,,,,,,,,,,,,*1E
$GPGSV,1,1,01,19,,,29*7B
$GPRMC,000118.799,V,,,,,0.00,0.00,060180,,,N*4D
$GPVTG,0.00,T,,M,0.00,N,0.00,K,N*32
$GPGGA,000119.799,,,,,0,00,,,M,,M,,*76
$GPGSA,A,1,,,,,,,,,,,,,,,*1E
$GPRMC,000119.799,V,,,,,0.00,0.00,060180,,,N*4C
$GPVTG,0.00,T,,M,0.00,N,0.00,K,N*32
$GPGGA,000120.799,,,,,0,00,,,M,,M,,*7C
$GPGSA,A,1,,,,,,,,,,,,,,,*1E
$GPRMC,000120.799,V,,,,,0.00,0.00,060180,,,N*46
$GPVTG,0.00,T,,M,0.00,N,0.00,K,N*32
$GPGGA,000121.799,,,,,0,00,,,M,,M,,*7D
$GPGSA,A,1,,,,,,,,,,,,,,,*1E
$GPRMC,000121.799,V,,,,,0.00,0.00,060180,,,N*47
$GPVTG,0.00,T,,M,0.00,N,0.00,K,N*32
$GPGGA,000122.799,,,,,0,00,,,M,,M,,*7E
$GPGSA,A,1,,,,,,,,,,,,,,,*1E
$GPRMC,000122.799,V,,,,,0.00,0.00,060180,,,N*44
$GPVTG,0.00,T,,M,0.00,N,0.00,K,N*32
$GPGGA,000123.799,,,,,0,00,,,M,,M,,*7F
$GPGSA,A,1,,,,,,,,,,,,,,,*1E
$GPGSV,1,1,01,19,,,29*7B
$GPRMC,000123.799,V,,,,,0.00,0.00,060180,,,N*45
$GPVTG,0.00,T,,M,0.00,N,0.00,K,N*32
$GPGGA,000124.799,,,,,0,00,,,M,,M,,*78
$GPGSA,A,1,,,,,,,,,,,,,,,*1E
$GPRMC,000124.799,V,,,,,0.00,0.00,060180,,,N*42
$GPVTG,0.00,T,,M,0.00,N,0.00,K,N*32
$GPGGA,000125.799,,,,,0,00,,,M,,M,,*79
$GPGSA,A,1,,,,,,,,,,,,,,,*1E
$GPRMC,000125.799,V,,,,,0.00,0.00,060180,,,N*43
$GPVTG,0.00,T,,M,0.00,N,0.00,K,N*32
$GPGGA,000126.015,,,,,0,00,,,M,,M,,*79
$GPGSA,A,1,,,,,,,,,,,,,,,*1E
$GPRMC,000126.015,V,,,,,0.00,0.00,060180,,,N*43
$GPVTG,0.00,T,,M,0.00,N,0.00,K,N*32
$GPGGA,000127.015,,,,,0,00,,,M,,M,,*78
$GPGSA,A,1,,,,,,,,,,,,,,,*1E
$GPRMC,000127.015,V,,,,,0.00,0.00,060180,,,N*42
$GPVTG,0.00,T,,M,0.00,N,0.00,K,N*32
$GPGGA,091340.183,,,,,0,00,,,M,,M,,*7D
$GPGSA,A,1,,,,,,,,,,,,,,,*1E
$GPGSV,1,1,01,19,,,29*7B
$GPRMC,091340.183,V,,,,,0.00,0.00,090180,,,N*48
$GPVTG,0.00,T,,M,0.00,N,0.00,K,N*32
$GPGGA,091341.183,,,,,0,00,,,M,,M,,*7C
$GPGSA,A,1,,,,,,,,,,,,,,,*1E
$GPRMC,091341.183,V,,,,,0.00,0.00,090180,,,N*49
$GPVTG,0.00,T,,M,0.00,N,0.00,K,N*32
$GPGGA,091342.183,,,,,0,00,,,M,,M,,*7F
$GPGSA,A,1,,,,,,,,,,,,,,,*1E
$GPRMC,091342.183,V,,,,,0.00,0.00,090180,,,N*4A
$GPVTG,0.00,T,,M,0.00,N,0.00,K,N*32
$GPGGA,091343.183,,,,,0,00,,,M,,M,,*7E
$GPGSA,A,1,,,,,,,,,,,,,,,*1E
$GPRMC,091343.183,V,,,,,0.00,0.00,090180,,,N*4B
$GPVTG,0.00,T,,M,0.00,N,0.00,K,N*32
$GPGGA,091344.103,,,,,0,00,,,M,,M,,*71
$GPGSA,A,1,,,,,,,,,,,,,,,*1E
$GPRMC,091344.103,V,,,,,0.00,0.00,090180,,,N*44
$GPVTG,0.00,T,,M,0.00,N,0.00,K,N*32
$GPGGA,091345.103,,,,,0,00,,,M,,M,,*70
$GPGSA,A,1,,,,,,,,,,,,,,,*1E
$GPGSV,1,1,01,19,,,29*7B
$GPRMC,091345.103,V,,,,,0.00,0.00,090180,,,N*45
$GPVTG,0.00,T,,M,0.00,N,0.00,K,N*32
$GPGGA,091346.103,,,,,0,00,,,M,,M,,*73
$GPGSA,A,1,,,,,,,,,,,,,,,*1E
$GPRMC,091346.103,V,,,,,0.00,0.00,090180,,,N*46
$GPVTG,0.00,T,,M,0.00,N,0.00,K,N*32
$GPGGA,091347.103,,,,,0,00,,,M,,M,,*72
$GPGSA,A,1,,,,,,,,,,,,,,,*1E
$GPRMC,091347.103,V,,,,,0.00,0.00,090180,,,N*47
$GPVTG,0.00,T,,M,0.00,N,0.00,K,N*32
$GPGGA,091348.103,,,,,0,00,,,M,,M,,*7D
$GPGSA,A,1,,,,,,,,,,,,,,,*1E
$GPRMC,091348.103,V,,,,,0.00,0.00,090180,,,N*48
$GPVTG,0.00,T,,M,0.00,N,0.00,K,N*32
$GPGGA,091349.103,,,,,0,00,,,M,,M,,*7C
$GPGSA,A,1,,,,,,,,,,,,,,,*1E
$GPRMC,091349.103,V,,,,,0.00,0.00,090180,,,N*49
$GPVTG,0.00,T,,M,0.00,N,0.00,K,N*32
$GPGGA,091350.098,,,,,0,00,,,M,,M,,*77
$GPGSA,A,1,,,,,,,,,,,,,,,*1E
$GPGSV,1,1,01,19,,,29*7B
$GPRMC,091350.098,V,,,,,0.00,0.00,090180,,,N*42
$GPVTG,0.00,T,,M,0.00,N,0.00,K,N*32
$GPGGA,091351.098,,,,,0,00,,,M,,M,,*76
$GPGSA,A,1,,,,,,,,,,,,,,,*1E
$GPRMC,091351.098,V,,,,,0.00,0.00,090180,,,N*43
$GPVTG,0.00,T,,M,0.00,N,0.00,K,N*32
$GPGGA,091352.098,,,,,0,00,,,M,,M,,*75
$GPGSA,A,1,,,,,,,,,,,,,,,*1E
$GPRMC,091352.098,V,,,,,0.00,0.00,090180,,,N*40
$GPVTG,0.00,T,,M,0.00,N,0.00,K,N*32
$GPGGA,091353.098,,,,,0,00,,,M,,M,,*74
$GPGSA,A,1,,,,,,,,,,,,,,,*1E
$GPRMC,091353.098,V,,,,,0.00,0.00,090180,,,N*41
$GPVTG,0.00,T,,M,0.00,N,0.00,K,N*32
$GPGGA,091354.098,,,,,0,00,,,M,,M,,*73
$GPGSA,A,1,,,,,,,,,,,,,,,*1E
$GPRMC,091354.098,V,,,,,0.00,0.00,090180,,,N*46
$GPVTG,0.00,T,,M,0.00,N,0.00,K,N*32
$GPGGA,091355.098,,,,,0,00,,,M,,M,,*72
$GPGSA,A,1,,,,,,,,,,,,,,,*1E
$GPGSV,1,1,01,19,,,30*73
$GPRMC,091355.098,V,,,,,0.00,0.00,090180,,,N*47
$GPVTG,0.00,T,,M,0.00,N,0.00,K,N*32
$GPGGA,091356.093,,,,,0,00,,,M,,M,,*7A
$GPGSA,A,1,,,,,,,,,,,,,,,*1E
$GPRMC,091356.093,V,,,,,0.00,0.00,090180,,,N*4F
$GPVTG,0.00,T,,M,0.00,N,0.00,K,N*32
$GPGGA,091357.093,,,,,0,00,,,M,,M,,*7B
$GPGSA,A,1,,,,,,,,,,,,,,,*1E
$GPRMC,091357.093,V,,,,,0.00,0.00,090180,,,N*4E
$GPVTG,0.00,T,,M,0.00,N,0.00,K,N*32
$GPGGA,091358.093,,,,,0,00,,,M,,M,,*74
$GPGSA,A,1,,,,,,,,,,,,,,,*1E
$GPRMC,091358.093,V,,,,,0.00,0.00,090180,,,N*41
$GPVTG,0.00,T,,M,0.00,N,0.00,K,N*32
$GPGGA,091359.093,,,,,0,00,,,M,,M,,*75
$GPGSA,A,1,,,,,,,,,,,,,,,*1E
$GPRMC,091359.093,V,,,,,0.00,0.00,090180,,,N*40
$GPVTG,0.00,T,,M,0.00,N,0.00,K,N*32
$GPGGA,091400.093,,,,,0,00,,,M,,M,,*7E
$GPGSA,A,1,,,,,,,,,,,,,,,*1E
$GPGSV,1,1,01,19,,,30*73
$GPRMC,091400.093,V,,,,,0.00,0.00,090180,,,N*4B
$GPVTG,0.00,T,,M,0.00,N,0.00,K,N*32
$GPGGA,091401.093,,,,,0,00,,,M,,M,,*7F
$GPGSA,A,1,,,,,,,,,,,,,,,*1E
$GPRMC,091401.093,V,,,,,0.00,0.00,090180,,,N*4A
$GPVTG,0.00,T,,M,0.00,N,0.00,K,N*32
$GPGGA,091402.093,,,,,0,00,,,M,,M,,*7C
$GPGSA,A,1,,,,,,,,,,,,,,,*1E
$GPRMC,091402.093,V,,,,,0.00,0.00,040315,,,N*4A
$GPVTG,0.00,T,,M,0.00,N,0.00,K,N*32
$GPGGA,091403.093,,,,,0,00,,,M,,M,,*7D
$GPGSA,A,1,,,,,,,,,,,,,,,*1E
$GPRMC,091403.093,V,,,,,0.00,0.00,040315,,,N*4B
$GPVTG,0.00,T,,M,0.00,N,0.00,K,N*32
$GPGGA,091404.093,,,,,0,00,,,M,,M,,*7A
$GPGSA,A,1,,,,,,,,,,,,,,,*1E
$GPRMC,091404.093,V,,,,,0.00,0.00,040315,,,N*4C
$GPVTG,0.00,T,,M,0.00,N,0.00,K,N*32
$GPGGA,091405.093,,,,,0,00,,,M,,M,,*7B
$GPGSA,A,1,,,,,,,,,,,,,,,*1E
$GPGSV,1,1,01,19,,,30*73
$GPRMC,091405.093,V,,,,,0.00,0.00,040315,,,N*4D
$GPVTG,0.00,T,,M,0.00,N,0.00,K,N*32
$GPGGA,091406.093,,,,,0,00,,,M,,M,,*78
$GPGSA,A,1,,,,,,,,,,,,,,,*1E
$GPRMC,091406.093,V,,,,,0.00,0.00,040315,,,N*4E
$GPVTG,0.00,T,,M,0.00,N,0.00,K,N*32
$GPGGA,091407.093,,,,,0,00,,,M,,M,,*79
$GPGSA,A,1,,,,,,,,,,,,,,,*1E
$GPRMC,091407.093,V,,,,,0.00,0.00,040315,,,N*4F
$GPVTG,0.00,T,,M,0.00,N,0.00,K,N*32
$GPGGA,091408.093,,,,,0,00,,,M,,M,,*76
$GPGSA,A,1,,,,,,,,,,,,,,,*1E
$GPRMC,091408.093,V,,,,,0.00,0.00,040315,,,N*40
$GPVTG,0.00,T,,M,0.00,N,0.00,K,N*32
$GPGGA,091409.093,,,,,0,00,,,M,,M,,*77
$GPGSA,A,1,,,,,,,,,,,,,,,*1E
$GPRMC,091409.093,V,,,,,0.00,0.00,040315,,,N*41
$GPVTG,0.00,T,,M,0.00,N,0.00,K,N*32
$GPGGA,091410.093,,,,,0,00,,,M,,M,,*7F
$GPGSA,A,1,,,,,,,,,,,,,,,*1E
$GPGSV,1,1,01,19,,,30*73
$GPRMC,091410.093,V,,,,,0.00,0.00,040315,,,N*49
$GPVTG,0.00,T,,M,0.00,N,0.00,K,N*32
$GPGGA,091411.093,,,,,0,00,,,M,,M,,*7E
$GPGSA,A,1,,,,,,,,,,,,,,,*1E
$GPRMC,091411.093,V,,,,,0.00,0.00,040315,,,N*48
$GPVTG,0.00,T,,M,0.00,N,0.00,K,N*32
$GPGGA,091412.093,,,,,0,00,,,M,,M,,*7D
$GPGSA,A,1,,,,,,,,,,,,,,,*1E
$GPRMC,091412.093,V,,,,,0.00,0.00,040315,,,N*4B
$GPVTG,0.00,T,,M,0.00,N,0.00,K,N*32
$GPGGA,091413.093,,,,,0,00,,,M,,M,,*7C
$GPGSA,A,1,,,,,,,,,,,,,,,*1E
$GPRMC,091413.093,V,,,,,0.00,0.00,040315,,,N*4A
$GPVTG,0.00,T,,M,0.00,N,0.00,K,N*32
$GPGGA,091414.086,,,,,0,00,,,M,,M,,*7F
$GPGSA,A,1,,,,,,,,,,,,,,,*1E
$GPRMC,091414.086,V,,,,,0.00,0.00,040315,,,N*49
$GPVTG,0.00,T,,M,0.00,N,0.00,K,N*32
$GPGGA,091415.086,,,,,0,00,,,M,,M,,*7E
$GPGSA,A,1,,,,,,,,,,,,,,,*1E
$GPGSV,1,1,01,19,,,30*73
$GPRMC,091415.086,V,,,,,0.00,0.00,040315,,,N*48
$GPVTG,0.00,T,,M,0.00,N,0.00,K,N*32
$GPGGA,091416.086,,,,,0,00,,,M,,M,,*7D
$GPGSA,A,1,,,,,,,,,,,,,,,*1E
$GPRMC,091416.086,V,,,,,0.00,0.00,040315,,,N*4B
$GPVTG,0.00,T,,M,0.00,N,0.00,K,N*32
$GPGGA,091417.086,,,,,0,00,,,M,,M,,*7C
$GPGSA,A,1,,,,,,,,,,,,,,,*1E
$GPRMC,091417.086,V,,,,,0.00,0.00,040315,,,N*4A
$GPVTG,0.00,T,,M,0.00,N,0.00,K,N*32
$GPGGA,091418.086,,,,,0,00,,,M,,M,,*73
$GPGSA,A,1,,,,,,,,,,,,,,,*1E
$GPRMC,091418.086,V,,,,,0.00,0.00,040315,,,N*45
$GPVTG,0.00,T,,M,0.00,N,0.00,K,N*32
$GPGGA,091419.086,,,,,0,00,,,M,,M,,*72
$GPGSA,A,1,,,,,,,,,,,,,,,*1E
$GPRMC,091419.086,V,,,,,0.00,0.00,040315,,,N*44
$GPVTG,0.00,T,,M,0.00,N,0.00,K,N*32
$GPGGA,091420.086,,,,,0,00,,,M,,M,,*78
$GPGSA,A,1,,,,,,,,,,,,,,,*1E
$GPGSV,1,1,01,19,,,30*73
$GPRMC,091420.086,V,,,,,0.00,0.00,040315,,,N*4E
$GPVTG,0.00,T,,M,0.00,N,0.00,K,N*32
$GPGGA,091421.086,,,,,0,00,,,M,,M,,*79
$GPGSA,A,1,,,,,,,,,,,,,,,*1E
$GPRMC,091421.086,V,,,,,0.00,0.00,040315,,,N*4F
$GPVTG,0.00,T,,M,0.00,N,0.00,K,N*32
$GPGGA,091422.086,,,,,0,00,,,M,,M,,*7A
$GPGSA,A,1,,,,,,,,,,,,,,,*1E
$GPRMC,091422.086,V,,,,,0.00,0.00,040315,,,N*4C
$GPVTG,0.00,T,,M,0.00,N,0.00,K,N*32
$GPGGA,091423.086,,,,,0,00,,,M,,M,,*7B
$GPGSA,A,1,,,,,,,,,,,,,,,*1E
$GPRMC,091423.086,V,,,,,0.00,0.00,040315,,,N*4D
$GPVTG,0.00,T,,M,0.00,N,0.00,K,N*32
$GPGGA,091424.086,,,,,0,00,,,M,,M,,*7C
$GPGSA,A,1,,,,,,,,,,,,,,,*1E
$GPRMC,091424.086,V,,,,,0.00,0.00,040315,,,N*4A
$GPVTG,0.00,T,,M,0.00,N,0.00,K,N*32
$GPGGA,091425.086,,,,,0,00,,,M,,M,,*7D
$GPGSA,A,1,,,,,,,,,,,,,,,*1E
$GPGSV,1,1,01,19,,,30*73
$GPRMC,091425.086,V,,,,,0.00,0.00,040315,,,N*4B
$GPVTG,0.00,T,,M,0.00,N,0.00,K,N*32
$GPGGA,091426.086,,,,,0,00,,,M,,M,,*7E
$GPGSA,A,1,,,,,,,,,,,,,,,*1E
$GPRMC,091426.086,V,,,,,0.00,0.00,040315,,,N*48
$GPVTG,0.00,T,,M,0.00,N,0.00,K,N*32
$GPGGA,091427.086,,,,,0,00,,,M,,M,,*7F
$GPGSA,A,1,,,,,,,,,,,,,,,*1E
$GPRMC,091427.086,V,,,,,0.00,0.00,040315,,,N*49
$GPVTG,0.00,T,,M,0.00,N,0.00,K,N*32
$GPGGA,091428.086,,,,,0,00,,,M,,M,,*70
$GPGSA,A,1,,,,,,,,,,,,,,,*1E
$GPRMC,091428.086,V,,,,,0.00,0.00,040315,,,N*46
$GPVTG,0.00,T,,M,0.00,N,0.00,K,N*32
$GPGGA,091429.086,,,,,0,00,,,M,,M,,*71
$GPGSA,A,1,,,,,,,,,,,,,,,*1E
$GPRMC,091429.086,V,,,,,0.00,0.00,040315,,,N*47
$GPVTG,0.00,T,,M,0.00,N,0.00,K,N*32
$GPGGA,091430.086,,,,,0,00,,,M,,M,,*79
$GPGSA,A,1,,,,,,,,,,,,,,,*1E
$GPGSV,1,1,01,19,,,30*73
$GPRMC,091430.086,V,,,,,0.00,0.00,040315,,,N*4F
$GPVTG,0.00,T,,M,0.00,N,0.00,K,N*32
$GPGGA,091431.086,,,,,0,00,,,M,,M,,*78
$GPGSA,A,1,,,,,,,,,,,,,,,*1E
$GPRMC,091431.086,V,,,,,0.00,0.00,040315,,,N*4E
$GPVTG,0.00,T,,M,0.00,N,0.00,K,N*32
$GPGGA,091432.086,,,,,0,00,,,M,,M,,*7B
$GPGSA,A,1,,,,,,,,,,,,,,,*1E
$GPRMC,091432.086,V,,,,,0.00,0.00,040315,,,N*4D
$GPVTG,0.00,T,,M,0.00,N,0.00,K,N*32
$GPGGA,091433.086,,,,,0,00,,,M,,M,,*7A
$GPGSA,A,1,,,,,,,,,,,,,,,*1E
$GPRMC,091433.086,V,,,,,0.00,0.00,040315,,,N*4C
$GPVTG,0.00,T,,M,0.00,N,0.00,K,N*32
$GPGGA,091434.086,,,,,0,00,,,M,,M,,*7D
$GPGSA,A,1,,,,,,,,,,,,,,,*1E
$GPRMC,091434.086,V,,,,,0.00,0.00,040315,,,N*4B
$GPVTG,0.00,T,,M,0.00,N,0.00,K,N*32
$GPGGA,091435.086,,,,,0,00,,,M,,M,,*7C
$GPGSA,A,1,,,,,,,,,,,,,,,*1E
$GPGSV,1,1,01,19,,,29*7B
$GPRMC,091435.086,V,,,,,0.00,0.00,040315,,,N*4A
$GPVTG,0.00,T,,M,0.00,N,0.00,K,N*32
$GPGGA,091436.086,,,,,0,00,,,M,,M,,*7F
$GPGSA,A,1,,,,,,,,,,,,,,,*1E
$GPRMC,091436.086,V,,,,,0.00,0.00,040315,,,N*49
$GPVTG,0.00,T,,M,0.00,N,0.00,K,N*32
$GPGGA,091437.086,,,,,0,00,,,M,,M,,*7E
$GPGSA,A,1,,,,,,,,,,,,,,,*1E
$GPRMC,091437.086,V,,,,,0.00,0.00,040315,,,N*48
$GPVTG,0.00,T,,M,0.00,N,0.00,K,N*32
$GPGGA,091438.086,,,,,0,00,,,M,,M,,*71
$GPGSA,A,1,,,,,,,,,,,,,,,*1E
$GPRMC,091438.086,V,,,,,0.00,0.00,040315,,,N*47
$GPVTG,0.00,T,,M,0.00,N,0.00,K,N*32
$GPGGA,091439.086,,,,,0,00,,,M,,M,,*70
$GPGSA,A,1,,,,,,,,,,,,,,,*1E
$GPRMC,091439.086,V,,,,,0.00,0.00,040315,,,N*46
$GPVTG,0.00,T,,M,0.00,N,0.00,K,N*32
$GPGGA,091440.086,,,,,0,00,,,M,,M,,*7E
$GPGSA,A,1,,,,,,,,,,,,,,,*1E
$GPGSV,1,1,01,19,,,28*7A
$GPRMC,091440.086,V,,,,,0.00,0.00,040315,,,N*48
$GPVTG,0.00,T,,M,0.00,N,0.00,K,N*32
$GPGGA,091441.086,,,,,0,00,,,M,,M,,*7F
$GPGSA,A,1,,,,,,,,,,,,,,,*1E
$GPRMC,091441.086,V,,,,,0.00,0.00,040315,,,N*49
$GPVTG,0.00,T,,M,0.00,N,0.00,K,N*32
$GPGGA,091442.086,,,,,0,00,,,M,,M,,*7C
$GPGSA,A,1,,,,,,,,,,,,,,,*1E
$GPRMC,091442.086,V,,,,,0.00,0.00,040315,,,N*4A
$GPVTG,0.00,T,,M,0.00,N,0.00,K,N*32
$GPGGA,091443.086,,,,,0,00,,,M,,M,,*7D
$GPGSA,A,1,,,,,,,,,,,,,,,*1E
$GPRMC,091443.086,V,,,,,0.00,0.00,040315,,,N*4B
$GPVTG,0.00,T,,M,0.00,N,0.00,K,N*32
$GPGGA,091444.086,,,,,0,00,,,M,,M,,*7A
$GPGSA,A,1,,,,,,,,,,,,,,,*1E
$GPRMC,091444.086,V,,,,,0.00,0.00,040315,,,N*4C
$GPVTG,0.00,T,,M,0.00,N,0.00,K,N*32
$GPGGA,091445.086,,,,,0,00,,,M,,M,,*7B
$GPGSA,A,1,,,,,,,,,,,,,,,*1E
$GPGSV,1,1,01,19,,,28*7A
$GPRMC,091445.086,V,,,,,0.00,0.00,040315,,,N*4D
$GPVTG,0.00,T,,M,0.00,N,0.00,K,N*32
$GPGGA,091446.086,,,,,0,00,,,M,,M,,*78
$GPGSA,A,1,,,,,,,,,,,,,,,*1E
$GPRMC,091446.086,V,,,,,0.00,0.00,040315,,,N*4E
$GPVTG,0.00,T,,M,0.00,N,0.00,K,N*32
$GPGGA,091447.086,,,,,0,00,,,M,,M,,*79
$GPGSA,A,1,,,,,,,,,,,,,,,*1E
$GPRMC,091447.086,V,,,,,0.00,0.00,040315,,,N*4F
$GPVTG,0.00,T,,M,0.00,N,0.00,K,N*32
$GPGGA,091448.086,,,,,0,00,,,M,,M,,*76
$GPGSA,A,1,,,,,,,,,,,,,,,*1E
$GPRMC,091448.086,V,,,,,0.00,0.00,040315,,,N*40
$GPVTG,0.00,T,,M,0.00,N,0.00,K,N*32
$GPGGA,091449.086,,,,,0,00,,,M,,M,,*77
$GPGSA,A,1,,,,,,,,,,,,,,,*1E
$GPRMC,091449.086,V,,,,,0.00,0.00,040315,,,N*41
$GPVTG,0.00,T,,M,0.00,N,0.00,K,N*32
$GPGGA,091450.086,,,,,0,00,,,M,,M,,*7F
$GPGSA,A,1,,,,,,,,,,,,,,,*1E
$GPGSV,1,1,01,19,,,28*7A
$GPRMC,091450.086,V,,,,,0.00,0.00,040315,,,N*49
$GPVTG,0.00,T,,M,0.00,N,0.00,K,N*32
$GPGGA,091451.086,,,,,0,00,,,M,,M,,*7E
$GPGSA,A,1,,,,,,,,,,,,,,,*1E
$GPRMC,091451.086,V,,,,,0.00,0.00,040315,,,N*48
$GPVTG,0.00,T,,M,0.00,N,0.00,K,N*32
$GPGGA,091452.086,,,,,0,00,,,M,,M,,*7D
$GPGSA,A,1,,,,,,,,,,,,,,,*1E
$GPRMC,091452.086,V,,,,,0.00,0.00,040315,,,N*4B
$GPVTG,0.00,T,,M,0.00,N,0.00,K,N*32
$GPGGA,091453.086,,,,,0,00,,,M,,M,,*7C
$GPGSA,A,1,,,,,,,,,,,,,,,*1E
$GPRMC,091453.086,V,,,,,0.00,0.00,040315,,,N*4A
$GPVTG,0.00,T,,M,0.00,N,0.00,K,N*32
$GPGGA,091454.086,,,,,0,00,,,M,,M,,*7B
$GPGSA,A,1,,,,,,,,,,,,,,,*1E
$GPRMC,091454.086,V,,,,,0.00,0.00,040315,,,N*4D
$GPVTG,0.00,T,,M,0.00,N,0.00,K,N*32
$GPGGA,091455.086,,,,,0,00,,,M,,M,,*7A
$GPGSA,A,1,,,,,,,,,,,,,,,*1E
$GPGSV,1,1,01,19,,,28*7A
$GPRMC,091455.086,V,,,,,0.00,0.00,040315,,,N*4C
$GPVTG,0.00,T,,M,0.00,N,0.00,K,N*32
$GPGGA,091456.086,,,,,0,00,,,M,,M,,*79
$GPGSA,A,1,,,,,,,,,,,,,,,*1E
$GPRMC,091456.086,V,,,,,0.00,0.00,040315,,,N*4F
$GPVTG,0.00,T,,M,0.00,N,0.00,K,N*32
$GPGGA,091457.086,,,,,0,00,,,M,,M,,*78
$GPGSA,A,1,,,,,,,,,,,,,,,*1E
$GPRMC,091457.086,V,,,,,0.00,0.00,040315,,,N*4E
$GPVTG,0.00,T,,M,0.00,N,0.00,K,N*32
$GPGGA,091458.086,,,,,0,00,,,M,,M,,*77
$GPGSA,A,1,,,,,,,,,,,,,,,*1E
$GPRMC,091458.086,V,,,,,0.00,0.00,040315,,,N*41
$GPVTG,0.00,T,,M,0.00,N,0.00,K,N*32
$GPGGA,091459.086,,,,,0,00,,,M,,M,,*76
$GPGSA,A,1,,,,,,,,,,,,,,,*1E
$GPRMC,091459.086,V,,,,,0.00,0.00,040315,,,N*40
$GPVTG,0.00,T,,M,0.00,N,0.00,K,N*32
$GPGGA,091500.086,,,,,0,00,,,M,,M,,*7B
$GPGSA,A,1,,,,,,,,,,,,,,,*1E
$GPGSV,1,1,01,19,,,28*7A
$GPRMC,091500.086,V,,,,,0.00,0.00,040315,,,N*4D
$GPVTG,0.00,T,,M,0.00,N,0.00,K,N*32
$GPGGA,091501.086,,,,,0,00,,,M,,M,,*7A
$GPGSA,A,1,,,,,,,,,,,,,,,*1E
$GPRMC,091501.086,V,,,,,0.00,0.00,040315,,,N*4C
$GPVTG,0.00,T,,M,0.00,N,0.00,K,N*32
$GPGGA,091502.086,,,,,0,00,,,M,,M,,*79
$GPGSA,A,1,,,,,,,,,,,,,,,*1E
$GPRMC,091502.086,V,,,,,0.00,0.00,040315,,,N*4F
$GPVTG,0.00,T,,M,0.00,N,0.00,K,N*32
$GPGGA,091503.086,,,,,0,00,,,M,,M,,*78
$GPGSA,A,1,,,,,,,,,,,,,,,*1E
$GPRMC,091503.086,V,,,,,0.00,0.00,040315,,,N*4E
$GPVTG,0.00,T,,M,0.00,N,0.00,K,N*32
$GPGGA,091504.086,,,,,0,00,,,M,,M,,*7F
$GPGSA,A,1,,,,,,,,,,,,,,,*1E
$GPRMC,091504.086,V,,,,,0.00,0.00,040315,,,N*49
$GPVTG,0.00,T,,M,0.00,N,0.00,K,N*32
$GPGGA,091505.086,,,,,0,00,,,M,,M,,*7E
$GPGSA,A,1,,,,,,,,,,,,,,,*1E
$GPGSV,1,1,01,19,,,27*75
$GPRMC,091505.086,V,,,,,0.00,0.00,040315,,,N*48
$GPVTG,0.00,T,,M,0.00,N,0.00,K,N*32
$GPGGA,091506.086,,,,,0,00,,,M,,M,,*7D
$GPGSA,A,1,,,,,,,,,,,,,,,*1E
$GPRMC,091506.086,V,,,,,0.00,0.00,040315,,,N*4B
$GPVTG,0.00,T,,M,0.00,N,0.00,K,N*32
$GPGGA,091507.086,,,,,0,00,,,M,,M,,*7C
$GPGSA,A,1,,,,,,,,,,,,,,,*1E
$GPRMC,091507.086,V,,,,,0.00,0.00,040315,,,N*4A
$GPVTG,0.00,T,,M,0.00,N,0.00,K,N*32
$GPGGA,091508.086,,,,,0,00,,,M,,M,,*73
$GPGSA,A,1,,,,,,,,,,,,,,,*1E
$GPRMC,091508.086,V,,,,,0.00,0.00,040315,,,N*45
$GPVTG,0.00,T,,M,0.00,N,0.00,K,N*32
$GPGGA,091509.086,,,,,0,00,,,M,,M,,*72
$GPGSA,A,1,,,,,,,,,,,,,,,*1E
$GPRMC,091509.086,V,,,,,0.00,0.00,040315,,,N*44
$GPVTG,0.00,T,,M,0.00,N,0.00,K,N*32
$GPGGA,091510.086,,,,,0,00,,,M,,M,,*7A
$GPGSA,A,1,,,,,,,,,,,,,,,*1E
$GPGSV,1,1,01,19,,,27*75
$GPRMC,091510.086,V,,,,,0.00,0.00,040315,,,N*4C
$GPVTG,0.00,T,,M,0.00,N,0.00,K,N*32
$GPGGA,091511.086,,,,,0,00,,,M,,M,,*7B
$GPGSA,A,1,,,,,,,,,,,,,,,*1E
$GPRMC,091511.086,V,,,,,0.00,0.00,040315,,,N*4D
$GPVTG,0.00,T,,M,0.00,N,0.00,K,N*32
$GPGGA,091512.086,,,,,0,00,,,M,,M,,*78
$GPGSA,A,1,,,,,,,,,,,,,,,*1E
$GPRMC,091512.086,V,,,,,0.00,0.00,040315,,,N*4E
$GPVTG,0.00,T,,M,0.00,N,0.00,K,N*32
$GPGGA,091513.086,,,,,0,00,,,M,,M,,*79
$GPGSA,A,1,,,,,,,,,,,,,,,*1E
$GPRMC,091513.086,V,,,,,0.00,0.00,040315,,,N*4F
$GPVTG,0.00,T,,M,0.00,N,0.00,K,N*32
$GPGGA,091514.086,,,,,0,00,,,M,,M,,*7E
$GPGSA,A,1,,,,,,,,,,,,,,,*1E
$GPRMC,091514.086,V,,,,,0.00,0.00,040315,,,N*48
$GPVTG,0.00,T,,M,0.00,N,0.00,K,N*32
$GPGGA,091515.086,,,,,0,00,,,M,,M,,*7F
$GPGSA,A,1,,,,,,,,,,,,,,,*1E
$GPGSV,1,1,01,19,,,23*71
$GPRMC,091515.086,V,,,,,0.00,0.00,040315,,,N*49
$GPVTG,0.00,T,,M,0.00,N,0.00,K,N*32
$GPGGA,091516.086,,,,,0,00,,,M,,M,,*7C
$GPGSA,A,1,,,,,,,,,,,,,,,*1E
$GPRMC,091516.086,V,,,,,0.00,0.00,040315,,,N*4A
$GPVTG,0.00,T,,M,0.00,N,0.00,K,N*32
$GPGGA,091517.086,,,,,0,00,,,M,,M,,*7D
$GPGSA,A,1,,,,,,,,,,,,,,,*1E
$GPRMC,091517.086,V,,,,,0.00,0.00,040315,,,N*4B
$GPVTG,0.00,T,,M,0.00,N,0.00,K,N*32
$GPGGA,091518.086,,,,,0,00,,,M,,M,,*72
$GPGSA,A,1,,,,,,,,,,,,,,,*1E
$GPRMC,091518.086,V,,,,,0.00,0.00,040315,,,N*44
$GPVTG,0.00,T,,M,0.00,N,0.00,K,N*32
$GPGGA,091519.086,,,,,0,00,,,M,,M,,*73
$GPGSA,A,1,,,,,,,,,,,,,,,*1E
$GPRMC,091519.086,V,,,,,0.00,0.00,040315,,,N*45
$GPVTG,0.00,T,,M,0.00,N,0.00,K,N*32
$GPGGA,091520.086,,,,,0,00,,,M,,M,,*79
$GPGSA,A,1,,,,,,,,,,,,,,,*1E
$GPGSV,1,1,01,19,,,22*70
$GPRMC,091520.086,V,,,,,0.00,0.00,040315,,,N*4F
$GPVTG,0.00,T,,M,0.00,N,0.00,K,N*32
$GPGGA,091521.086,,,,,0,00,,,M,,M,,*78
$GPGSA,A,1,,,,,,,,,,,,,,,*1E
$GPRMC,091521.086,V,,,,,0.00,0.00,040315,,,N*4E
$GPVTG,0.00,T,,M,0.00,N,0.00,K,N*32
$GPGGA,091522.086,,,,,0,00,,,M,,M,,*7B
$GPGSA,A,1,,,,,,,,,,,,,,,*1E
$GPRMC,091522.086,V,,,,,0.00,0.00,040315,,,N*4D
$GPVTG,0.00,T,,M,0.00,N,0.00,K,N*32
$GPGGA,091523.086,,,,,0,00,,,M,,M,,*7A
$GPGSA,A,1,,,,,,,,,,,,,,,*1E
$GPRMC,091523.086,V,,,,,0.00,0.00,040315,,,N*4C
$GPVTG,0.00,T,,M,0.00,N,0.00,K,N*32
$GPGGA,091524.086,,,,,0,00,,,M,,M,,*7D
$GPGSA,A,1,,,,,,,,,,,,,,,*1E
$GPRMC,091524.086,V,,,,,0.00,0.00,040315,,,N*4B
$GPVTG,0.00,T,,M,0.00,N,0.00,K,N*32
$GPGGA,091525.086,,,,,0,00,,,M,,M,,*7C
$GPGSA,A,1,,,,,,,,,,,,,,,*1E
$GPGSV,1,1,01,19,,,20*72
$GPRMC,091525.086,V,,,,,0.00,0.00,040315,,,N*4A
$GPVTG,0.00,T,,M,0.00,N,0.00,K,N*32
$GPGGA,091526.086,,,,,0,00,,,M,,M,,*7F
$GPGSA,A,1,,,,,,,,,,,,,,,*1E
$GPRMC,091526.086,V,,,,,0.00,0.00,040315,,,N*49
$GPVTG,0.00,T,,M,0.00,N,0.00,K,N*32
$GPGGA,091527.086,,,,,0,00,,,M,,M,,*7E
$GPGSA,A,1,,,,,,,,,,,,,,,*1E
$GPRMC,091527.086,V,,,,,0.00,0.00,040315,,,N*48
$GPVTG,0.00,T,,M,0.00,N,0.00,K,N*32
$GPGGA,091528.086,,,,,0,00,,,M,,M,,*71
$GPGSA,A,1,,,,,,,,,,,,,,,*1E
$GPRMC,091528.086,V,,,,,0.00,0.00,040315,,,N*47
$GPVTG,0.00,T,,M,0.00,N,0.00,K,N*32
$GPGGA,091529.086,,,,,0,00,,,M,,M,,*70
$GPGSA,A,1,,,,,,,,,,,,,,,*1E
$GPRMC,091529.086,V,,,,,0.00,0.00,040315,,,N*46
$GPVTG,0.00,T,,M,0.00,N,0.00,K,N*32
$GPGGA,091530.086,,,,,0,00,,,M,,M,,*78
$GPGSA,A,1,,,,,,,,,,,,,,,*1E
$GPGSV,1,1,01,19,,,23*71
$GPRMC,091530.086,V,,,,,0.00,0.00,040315,,,N*4E
$GPVTG,0.00,T,,M,0.00,N,0.00,K,N*32
$GPGGA,091531.086,,,,,0,00,,,M,,M,,*79
$GPGSA,A,1,,,,,,,,,,,,,,,*1E
$GPRMC,091531.086,V,,,,,0.00,0.00,040315,,,N*4F
$GPVTG,0.00,T,,M,0.00,N,0.00,K,N*32
$GPGGA,091532.086,,,,,0,00,,,M,,M,,*7A
$GPGSA,A,1,,,,,,,,,,,,,,,*1E
$GPRMC,091532.086,V,,,,,0.00,0.00,040315,,,N*4C
$GPVTG,0.00,T,,M,0.00,N,0.00,K,N*32
$GPGGA,091533.086,,,,,0,00,,,M,,M,,*7B
$GPGSA,A,1,,,,,,,,,,,,,,,*1E
$GPRMC,091533.086,V,,,,,0.00,0.00,040315,,,N*4D
$GPVTG,0.00,T,,M,0.00,N,0.00,K,N*32
$GPGGA,091534.086,,,,,0,00,,,M,,M,,*7C
$GPGSA,A,1,,,,,,,,,,,,,,,*1E
$GPRMC,091534.086,V,,,,,0.00,0.00,040315,,,N*4A
$GPVTG,0.00,T,,M,0.00,N,0.00,K,N*32
$GPGGA,091535.086,,,,,0,00,,,M,,M,,*7D
$GPGSA,A,1,,,,,,,,,,,,,,,*1E
$GPGSV,1,1,02,19,,,42,18,,,44*7C
$GPRMC,091535.086,V,,,,,0.00,0.00,040315,,,N*4B
$GPVTG,0.00,T,,M,0.00,N,0.00,K,N*32
$GPGGA,091536.086,,,,,0,00,,,M,,M,,*7E
$GPGSA,A,1,,,,,,,,,,,,,,,*1E
$GPRMC,091536.086,V,,,,,0.00,0.00,040315,,,N*48
$GPVTG,0.00,T,,M,0.00,N,0.00,K,N*32
$GPGGA,091537.086,,,,,0,00,,,M,,M,,*7F
$GPGSA,A,1,,,,,,,,,,,,,,,*1E
$GPRMC,091537.086,V,,,,,0.00,0.00,040315,,,N*49
$GPVTG,0.00,T,,M,0.00,N,0.00,K,N*32
$GPGGA,091538.086,,,,,0,00,,,M,,M,,*70
$GPGSA,A,1,,,,,,,,,,,,,,,*1E
$GPRMC,091538.086,V,,,,,0.00,0.00,040315,,,N*46
$GPVTG,0.00,T,,M,0.00,N,0.00,K,N*32
$GPGGA,091539.086,,,,,0,00,,,M,,M,,*71
$GPGSA,A,1,,,,,,,,,,,,,,,*1E
$GPRMC,091539.086,V,,,,,0.00,0.00,040315,,,N*47
$GPVTG,0.00,T,,M,0.00,N,0.00,K,N*32
$GPGGA,091540.086,,,,,0,00,,,M,,M,,*7F
$GPGSA,A,1,,,,,,,,,,,,,,,*1E
$GPGSV,1,1,03,19,,,36,04,,,43,18,,,43*7A
$GPRMC,091540.086,V,,,,,0.00,0.00,040315,,,N*49
$GPVTG,0.00,T,,M,0.00,N,0.00,K,N*32
$GPGGA,091541.086,,,,,0,00,,,M,,M,,*7E
$GPGSA,A,1,,,,,,,,,,,,,,,*1E
$GPRMC,091541.086,V,,,,,0.00,0.00,040315,,,N*48
$GPVTG,0.00,T,,M,0.00,N,0.00,K,N*32
$GPGGA,091542.086,,,,,0,00,,,M,,M,,*7D
$GPGSA,A,1,,,,,,,,,,,,,,,*1E
$GPRMC,091542.086,V,,,,,0.00,0.00,040315,,,N*4B
$GPVTG,0.00,T,,M,0.00,N,0.00,K,N*32
$GPGGA,091543.086,,,,,0,00,,,M,,M,,*7C
$GPGSA,A,1,,,,,,,,,,,,,,,*1E
$GPRMC,091543.086,V,,,,,0.00,0.00,040315,,,N*4A
$GPVTG,0.00,T,,M,0.00,N,0.00,K,N*32
$GPGGA,091544.086,,,,,0,00,,,M,,M,,*7B
$GPGSA,A,1,,,,,,,,,,,,,,,*1E
$GPRMC,091544.086,V,,,,,0.00,0.00,040315,,,N*4D
$GPVTG,0.00,T,,M,0.00,N,0.00,K,N*32
$GPGGA,091544.299,,,,,0,00,,,M,,M,,*77
$GPGSA,A,1,,,,,,,,,,,,,,,*1E
$GPGSV,2,1,05,19,,,37,04,,,34,18,,,42,22,,,37*7B
$GPGSV,2,2,05,27,,,25*7E
$GPRMC,091544.299,V,,,,,0.00,0.00,040315,,,N*41
$GPVTG,0.00,T,,M,0.00,N,0.00,K,N*32
$GPGGA,091545.299,,,,,0,00,,,M,,M,,*76
$GPGSA,A,1,,,,,,,,,,,,,,,*1E
$GPRMC,091545.299,V,,,,,0.00,0.00,040315,,,N*40
$GPVTG,0.00,T,,M,0.00,N,0.00,K,N*32
$GPGGA,091546.299,,,,,0,00,,,M,,M,,*75
$GPGSA,A,1,,,,,,,,,,,,,,,*1E
$GPRMC,091546.299,V,,,,,0.00,0.00,040315,,,N*43
$GPVTG,0.00,T,,M,0.00,N,0.00,K,N*32
$GPGGA,091547.299,,,,,0,00,,,M,,M,,*74
$GPGSA,A,1,,,,,,,,,,,,,,,*1E
$GPRMC,091547.299,V,,,,,0.00,0.00,040315,,,N*42
$GPVTG,0.00,T,,M,0.00,N,0.00,K,N*32
$GPGGA,091548.299,,,,,0,00,,,M,,M,,*7B
$GPGSA,A,1,,,,,,,,,,,,,,,*1E
$GPRMC,091548.299,V,,,,,0.00,0.00,040315,,,N*4D
$GPVTG,0.00,T,,M,0.00,N,0.00,K,N*32
$GPGGA,091549.299,,,,,0,00,,,M,,M,,*7A
$GPGSA,A,1,,,,,,,,,,,,,,,*1E
$GPGSV,2,1,06,19,,,36,04,,,34,18,,,41,22,,,39*74
$GPGSV,2,2,06,27,,,31,14,,,44*7D
$GPRMC,091549.299,V,,,,,0.00,0.00,040315,,,N*4C
$GPVTG,0.00,T,,M,0.00,N,0.00,K,N*32
$GPGGA,091550.092,,,,,0,00,,,M,,M,,*7B
$GPGSA,A,1,,,,,,,,,,,,,,,*1E
$GPRMC,091550.092,V,,,,,0.00,0.00,040315,,,N*4D
$GPVTG,0.00,T,,M,0.00,N,0.00,K,N*32
$GPGGA,091551.092,,,,,0,00,,,M,,M,,*7A
$GPGSA,A,1,,,,,,,,,,,,,,,*1E
$GPRMC,091551.092,V,,,,,0.00,0.00,040315,,,N*4C
$GPVTG,0.00,T,,M,0.00,N,0.00,K,N*32
$GPGGA,091552.092,,,,,0,00,,,M,,M,,*79
$GPGSA,A,1,,,,,,,,,,,,,,,*1E
$GPRMC,091552.092,V,,,,,0.00,0.00,040315,,,N*4F
$GPVTG,0.00,T,,M,0.00,N,0.00,K,N*32
$GPGGA,091553.092,,,,,0,00,,,M,,M,,*78
$GPGSA,A,1,,,,,,,,,,,,,,,*1E
$GPRMC,091553.092,V,,,,,0.00,0.00,040315,,,N*4E
$GPVTG,0.00,T,,M,0.00,N,0.00,K,N*32
$GPGGA,091554.092,,,,,0,00,,,M,,M,,*7F
$GPGSA,A,1,,,,,,,,,,,,,,,*1E
$GPGSV,2,1,06,19,,,36,04,,,34,18,,,41,22,,,39*74
$GPGSV,2,2,06,27,,,29,14,,,44*74
$GPRMC,091554.092,V,,,,,0.00,0.00,040315,,,N*49
$GPVTG,0.00,T,,M,0.00,N,0.00,K,N*32
$GPGGA,091555.092,,,,,0,00,,,M,,M,,*7E
$GPGSA,A,1,,,,,,,,,,,,,,,*1E
$GPRMC,091555.092,V,,,,,0.00,0.00,040315,,,N*48
$GPVTG,0.00,T,,M,0.00,N,0.00,K,N*32
$GPGGA,091556.079,,,,,0,00,,,M,,M,,*78
$GPGSA,A,1,,,,,,,,,,,,,,,*1E
$GPRMC,091556.079,V,,,,,0.00,0.00,040315,,,N*4E
$GPVTG,0.00,T,,M,0.00,N,0.00,K,N*32
$GPGGA,091556.298,,,,,0,00,,,M,,M,,*75
$GPGSA,A,1,,,,,,,,,,,,,,,*1E
$GPRMC,091556.298,V,,,,,0.00,0.00,040315,,,N*43
$GPVTG,0.00,T,,M,0.00,N,0.00,K,N*32
$GPGGA,091557.298,,,,,0,00,,,M,,M,,*74
$GPGSA,A,1,,,,,,,,,,,,,,,*1E
$GPRMC,091557.298,V,,,,,0.00,0.00,040315,,,N*42
$GPVTG,0.00,T,,M,0.00,N,0.00,K,N*32
$GPGGA,091558.298,,,,,0,00,,,M,,M,,*7B
$GPGSA,A,1,,,,,,,,,,,,,,,*1E
$GPGSV,2,1,06,19,,,37,04,,,34,18,,,37,22,,,39*74
$GPGSV,2,2,06,27,,,35,14,,,44*79
$GPRMC,091558.298,V,,,,,0.00,0.00,040315,,,N*4D
$GPVTG,0.00,T,,M,0.00,N,0.00,K,N*32
$GPGGA,091559.298,,,,,0,00,,,M,,M,,*7A
$GPGSA,A,1,,,,,,,,,,,,,,,*1E
$GPRMC,091559.298,V,,,,,0.00,0.00,040315,,,N*4C
$GPVTG,0.00,T,,M,0.00,N,0.00,K,N*32
$GPGGA,091600.298,,,,,0,00,,,M,,M,,*75
$GPGSA,A,1,,,,,,,,,,,,,,,*1E
$GPRMC,091600.298,V,,,,,0.00,0.00,040315,,,N*43
$GPVTG,0.00,T,,M,0.00,N,0.00,K,N*32
$GPGGA,091601.298,,,,,0,00,,,M,,M,,*74
$GPGSA,A,1,,,,,,,,,,,,,,,*1E
$GPRMC,091601.298,V,,,,,0.00,0.00,040315,,,N*42
$GPVTG,0.00,T,,M,0.00,N,0.00,K,N*32
$GPGGA,091602.077,,,,,0,03,,,M,,M,,*77
$GPGSA,A,1,,,,,,,,,,,,,,,*1E
$GPRMC,091602.077,V,,,,,0.31,255.42,040315,,,N*44
$GPVTG,255.42,T,,M,0.31,N,0.57,K,N*36
$GPGGA,092425.000,3752.3592,S,14501.4030,E,2,09,1.07,-57.4,M,-4.2,M,0000,0000*7D
$GPGSA,A,3,19,04,18,22,27,14,21,24,193,,,,1.35,1.07,0.83*33
$GPRMC,092425.000,A,3752.3592,S,14501.4030,E,2.18,93.31,040315,,,D*46
$GPVTG,93.31,T,,M,2.18,N,4.04,K,D*0B
$GPGGA,092426.000,3752.3591,S,14501.4043,E,2,09,1.07,-57.1,M,-4.2,M,0000,0000*7C
$GPGSA,A,3,19,04,18,22,27,14,21,24,193,,,,1.35,1.07,0.83*33
$GPRMC,092426.000,A,3752.3591,S,14501.4043,E,2.65,94.31,040315,,,D*4F
$GPVTG,94.31,T,,M,2.65,N,4.91,K,D*0A
$GPGGA,092427.000,3752.3590,S,14501.4058,E,2,09,1.07,-56.6,M,-4.2,M,0000,0000*70
$GPGSA,A,3,19,04,18,22,27,14,21,24,193,,,,1.35,1.07,0.83*33
$GPRMC,092427.000,A,3752.3590,S,14501.4058,E,2.89,96.13,040315,,,D*45
$GPVTG,96.13,T,,M,2.89,N,5.35,K,D*05
$GPGGA,092428.000,3752.3591,S,14501.4072,E,2,09,1.07,-56.4,M,-4.2,M,0000,0000*74
$GPGSA,A,3,19,04,18,22,27,14,21,24,193,,,,1.35,1.07,0.83*33
$GPGSV,3,1,12,193,81,245,41,22,72,181,44,14,58,359,43,27,51,293,31*4A
$GPGSV,3,2,12,42,46,000,38,18,42,121,25,19,42,245,41,21,26,059,39*77
$GPGSV,3,3,12,24,18,114,22,04,17,232,30,32,14,280,28,11,07,228,*78
$GPRMC,092428.000,A,3752.3591,S,14501.4072,E,2.82,99.90,040315,,,D*4C
$GPVTG,99.90,T,,M,2.82,N,5.23,K,D*0D
$GPGGA,092429.000,3752.3593,S,14501.4085,E,2,09,1.07,-56.3,M,-4.2,M,0000,0000*78
$GPGSA,A,3,19,04,18,22,27,14,21,24,193,,,,1.35,1.07,0.83*33
$GPRMC,092429.000,A,3752.3593,S,14501.4085,E,2.66,98.74,040315,,,D*46
$GPVTG,98.74,T,,M,2.66,N,4.93,K,D*06
$GPGGA,092430.000,3752.3595,S,14501.4098,E,2,08,1.20,-56.5,M,-4.2,M,0000,0000*78
$GPGSA,A,3,19,04,18,22,27,14,21,193,,,,,1.46,1.20,0.85*32
$GPRMC,092430.000,A,3752.3595,S,14501.4098,E,2.31,112.24,040315,,,D*70
$GPVTG,112.24,T,,M,2.31,N,4.28,K,D*32
$GPGGA,092431.000,3752.3597,S,14501.4110,E,2,09,1.07,-56.5,M,-4.2,M,0000,0000*7E
$GPGSA,A,3,19,04,18,22,27,14,21,24,193,,,,1.35,1.07,0.83*33
$GPRMC,092431.000,A,3752.3597,S,14501.4110,E,2.59,97.10,040315,,,D*47
$GPVTG,97.10,T,,M,2.59,N,4.79,K,D*03
$GPGGA,092432.000,3752.3597,S,14501.4121,E,2,09,1.07,-56.5,M,-4.2,M,0000,0000*7F
$GPGSA,A,3,19,04,18,22,27,14,21,24,193,,,,1.35,1.07,0.83*33
$GPRMC,092432.000,A,3752.3597,S,14501.4121,E,2.93,100.13,040315,,,D*7C
$GPVTG,100.13,T,,M,2.93,N,5.44,K,D*36
$GPGGA,092433.000,3752.3598,S,14501.4132,E,2,08,1.20,-56.4,M,-4.2,M,0000,0000*76
$GPGSA,A,3,19,04,18,22,27,14,21,193,,,,,1.46,1.20,0.85*32
$GPGSV,3,1,12,193,81,245,42,22,72,181,44,14,58,359,43,27,51,293,34*4C
$GPGSV,3,2,12,42,46,000,37,18,42,121,27,19,42,245,41,21,26,059,39*7A
$GPGSV,3,3,12,24,18,114,21,04,17,232,34,32,15,279,27,11,07,228,*77
$GPRMC,092433.000,A,3752.3598,S,14501.4132,E,2.70,103.96,040315,,,D*73
$GPVTG,103.96,T,,M,2.70,N,5.01,K,D*34
$GPGGA,092434.000,3752.3599,S,14501.4143,E,2,08,1.20,-56.4,M,-4.2,M,0000,0000*76
$GPGSA,A,3,19,04,18,22,27,14,21,193,,,,,1.46,1.20,0.85*32
$GPRMC,092434.000,A,3752.3599,S,14501.4143,E,2.52,78.80,040315,,,D*49
$GPVTG,78.80,T,,M,2.52,N,4.67,K,D*0F
$GPGGA,092435.000,3752.3597,S,14501.4152,E,2,08,1.20,-56.4,M,-4.2,M,0000,0000*79
$GPGSA,A,3,19,04,18,22,27,14,21,193,,,,,1.46,1.20,0.85*32
$GPRMC,092435.000,A,3752.3597,S,14501.4152,E,2.22,77.30,040315,,,D*45
$GPVTG,77.30,T,,M,2.22,N,4.11,K,D*0D
$GPGGA,092436.000,3752.3596,S,14501.4161,E,2,08,1.20,-56.6,M,-4.2,M,0000,0000*79
$GPGSA,A,3,19,04,18,22,27,14,21,193,,,,,1.46,1.20,0.85*32
$GPRMC,092436.000,A,3752.3596,S,14501.4161,E,2.61,81.03,040315,,,D*49
$GPVTG,81.03,T,,M,2.61,N,4.83,K,D*08
$GPGGA,092437.000,3752.3596,S,14501.4170,E,2,08,1.20,-56.7,M,-4.2,M,0000,0000*79
$GPGSA,A,3,19,04,18,22,27,14,21,193,,,,,1.46,1.20,0.85*32
$GPRMC,092437.000,A,3752.3596,S,14501.4170,E,2.33,91.47,040315,,,D*4E
$GPVTG,91.47,T,,M,2.33,N,4.33,K,D*05
$GPGGA,092438.000,3752.3596,S,14501.4178,E,2,08,1.20,-56.9,M,-4.2,M,0000,0000*70
$GPGSA,A,3,19,04,18,22,27,14,21,193,,,,,1.46,1.20,0.85*32
$GPGSV,3,1,12,193,81,245,43,22,72,181,25,14,58,359,43,27,51,293,36*48
$GPGSV,3,2,12,42,46,000,37,18,42,121,25,19,42,245,22,21,26,059,40*73
$GPGSV,3,3,12,24,18,114,21,04,17,232,23,32,15,279,26,11,07,228,*70
$GPRMC,092438.000,A,3752.3596,S,14501.4178,E,2.37,98.84,040315,,,D*4B
$GPVTG,98.84,T,,M,2.37,N,4.39,K,D*0D
$GPGGA,092439.000,3752.3598,S,14501.4186,E,2,08,1.20,-57.0,M,-4.2,M,0000,0000*76
$GPGSA,A,3,19,04,18,22,27,14,21,193,,,,,1.46,1.20,0.85*32
$GPRMC,092439.000,A,3752.3598,S,14501.4186,E,2.14,103.08,040315,,,D*73
$GPVTG,103.08,T,,M,2.14,N,3.97,K,D*38
$GPGGA,092440.000,3752.3599,S,14501.4193,E,2,09,1.07,-57.1,M,-4.2,M,0000,0000*78
$GPGSA,A,3,19,04,18,22,27,14,21,24,193,,,,1.35,1.07,0.83*33
$GPRMC,092440.000,A,3752.3599,S,14501.4193,E,2.35,103.08,040315,,,D*7B
$GPVTG,103.08,T,,M,2.35,N,4.36,K,D*37
$GPGGA,092441.000,3752.3601,S,14501.4200,E,2,08,1.20,-56.9,M,-4.2,M,0000,0000*7F
$GPGSA,A,3,19,04,18,22,27,14,21,193,,,,,1.46,1.20,0.85*32
$GPRMC,092441.000,A,3752.3601,S,14501.4200,E,2.54,107.26,040315,,,D*7E
$GPVTG,107.26,T,,M,2.54,N,4.71,K,D*3B
$GPGGA,092442.000,3752.3602,S,14501.4210,E,2,08,1.20,-56.9,M,-4.2,M,0000,0000*7E
$GPGSA,A,3,19,04,18,22,27,14,21,193,,,,,1.46,1.20,0.85*32
$GPRMC,092442.000,A,3752.3602,S,14501.4210,E,2.86,102.01,040315,,,D*70
$GPVTG,102.01,T,,M,2.86,N,5.30,K,D*30
$GPGGA,092443.000,3752.3604,S,14501.4219,E,2,09,1.07,-56.9,M,-4.2,M,0000,0000*74
$GPGSA,A,3,19,04,18,22,27,14,21,24,193,,,,1.35,1.07,0.83*33
$GPGSV,3,1,12,193,81,245,39,22,72,181,30,14,58,359,39,27,51,293,37*4D
$GPGSV,3,2,12,42,46,000,38,18,42,121,36,19,42,245,22,21,26,059,39*70
$GPGSV,3,3,12,24,18,114,19,04,17,232,21,32,15,279,28,11,07,228,*77
$GPRMC,092443.000,A,3752.3604,S,14501.4219,E,2.39,104.53,040315,,,D*7B
$GPVTG,104.53,T,,M,2.39,N,4.43,K,D*30
$GPGGA,092444.000,3752.3608,S,14501.4227,E,2,08,1.20,-56.8,M,-4.2,M,0000,0000*77
$GPGSA,A,3,19,04,18,22,27,14,21,193,,,,,1.46,1.20,0.85*32
$GPRMC,092444.000,A,3752.3608,S,14501.4227,E,2.65,105.62,040315,,,D*77
$GPVTG,105.62,T,,M,2.65,N,4.91,K,D*35
$GPGGA,092445.000,3752.3611,S,14501.4236,E,2,09,1.06,-56.5,M,-4.2,M,0000,0000*76
$GPGSA,A,3,19,04,18,22,27,14,21,24,193,,,,1.35,1.06,0.83*32
$GPRMC,092445.000,A,3752.3611,S,14501.4236,E,2.53,100.02,040315,,,D*78
$GPVTG,100.02,T,,M,2.53,N,4.70,K,D*3C
$GPGGA,092446.000,3752.3615,S,14501.4245,E,2,08,1.20,-56.3,M,-4.2,M,0000,0000*76
$GPGSA,A,3,19,04,18,22,27,14,21,193,,,,,1.46,1.20,0.85*32
$GPRMC,092446.000,A,3752.3615,S,14501.4245,E,2.71,96.83,040315,,,D*4C
$GPVTG,96.83,T,,M,2.71,N,5.02,K,D*0F
$GPGGA,092447.000,3752.3618,S,14501.4255,E,2,08,1.19,-56.0,M,-4.2,M,0000,0000*72
$GPGSA,A,3,19,04,18,22,27,14,21,193,,,,,1.46,1.19,0.85*38
$GPRMC,092447.000,A,3752.3618,S,14501.4255,E,2.79,96.24,040315,,,D*44
$GPVTG,96.24,T,,M,2.79,N,5.18,K,D*01
$GPGGA,092448.000,3752.3620,S,14501.4264,E,2,09,1.06,-55.8,M,-4.2,M,0000,0000*70
$GPGSA,A,3,19,04,18,22,27,14,21,24,193,,,,1.35,1.06,0.83*32
$GPGSV,3,1,12,193,81,245,41,22,72,181,43,14,58,359,42,27,51,293,36*4B
$GPGSV,3,2,12,42,46,000,38,18,42,121,29,19,42,245,24,21,26,059,40*76
$GPGSV,3,3,12,24,18,114,19,04,17,232,20,32,15,279,25,11,07,228,*7B
$GPRMC,092448.000,A,3752.3620,S,14501.4264,E,2.68,102.04,040315,,,D*7C
$GPVTG,102.04,T,,M,2.68,N,4.97,K,D*39
$GPGGA,092449.000,3752.3623,S,14501.4273,E,2,09,1.06,-55.5,M,-4.2,M,0000,0000*79
$GPGSA,A,3,19,04,18,22,27,14,21,24,193,,,,1.35,1.06,0.83*32
$GPRMC,092449.000,A,3752.3623,S,14501.4273,E,2.48,102.31,040315,,,D*7C
$GPVTG,102.31,T,,M,2.48,N,4.59,K,D*3F
$GPGGA,092450.000,3752.3747,S,14501.4406,E,2,09,1.06,-87.2,M,-4.2,M,0000,0000*7E
$GPGSA,A,3,19,04,18,22,27,14,21,24,193,,,,1.35,1.06,0.83*32
$GPRMC,092450.000,A,3752.3747,S,14501.4406,E,2.50,99.61,040315,,,D*4C
$GPVTG,99.61,T,,M,2.50,N,4.63,K,D*09
$GPGGA,092451.000,3752.3786,S,14501.4436,E,2,09,1.06,-87.8,M,-4.2,M,0000,0000*7B
$GPGSA,A,3,19,04,18,22,27,14,21,24,193,,,,1.35,1.06,0.83*32
$GPRMC,092451.000,A,3752.3786,S,14501.4436,E,2.49,106.19,040315,,,D*73
$GPVTG,106.19,T,,M,2.49,N,4.62,K,D*38
$GPGGA,092452.000,3752.3807,S,14501.4445,E,2,08,1.20,-89.8,M,-4.2,M,0000,0000*71
$GPGSA,A,3,19,04,18,22,27,14,21,193,,,,,1.46,1.20,0.85*32
$GPRMC,092452.000,A,3752.3807,S,14501.4445,E,2.27,104.02,040315,,,D*72
$GPVTG,104.02,T,,M,2.27,N,4.21,K,D*3F
$GPGGA,092453.000,3752.3821,S,14501.4462,E,2,09,1.06,-90.5,M,-4.2,M,0000,0000*71
$GPGSA,A,3,19,04,18,22,27,14,21,24,193,,,,1.35,1.06,0.83*32
$GPGSV,3,1,12,193,81,245,41,22,72,181,44,14,58,359,43,27,51,293,33*48
$GPGSV,3,2,12,42,46,000,38,18,42,121,28,19,42,245,31,21,26,059,39*7D
$GPGSV,3,3,12,24,18,114,21,04,17,232,22,32,15,279,28,11,07,228,24*79
$GPRMC,092453.000,A,3752.3821,S,14501.4462,E,2.21,96.01,040315,,,D*4D
$GPVTG,96.01,T,,M,2.21,N,4.09,K,D*0A
$GPGGA,092454.000,3752.3830,S,14501.4477,E,2,08,1.19,-91.0,M,-4.2,M,0000,0000*79
$GPGSA,A,3,19,04,18,22,27,14,21,193,,,,,1.46,1.19,0.85*38
$GPRMC,092454.000,A,3752.3830,S,14501.4477,E,2.24,104.59,040315,,,D*7C
$GPVTG,104.59,T,,M,2.24,N,4.14,K,D*34
$GPGGA,092455.000,3752.3837,S,14501.4484,E,2,08,1.19,-91.0,M,-4.2,M,0000,0000*73
$GPGSA,A,3,19,04,18,22,27,14,21,193,,,,,1.46,1.19,0.85*38
$GPRMC,092455.000,A,3752.3837,S,14501.4484,E,1.84,103.59,040315,,,D*78
$GPVTG,103.59,T,,M,1.84,N,3.41,K,D*3D
$GPGGA,092456.000,3752.3842,S,14501.4495,E,2,08,1.19,-91.1,M,-4.2,M,0000,0000*73
$GPGSA,A,3,19,04,18,22,27,14,21,193,,,,,1.46,1.19,0.85*38
$GPRMC,092456.000,A,3752.3842,S,14501.4495,E,2.27,96.47,040315,,,D*41
$GPVTG,96.47,T,,M,2.27,N,4.20,K,D*05
$GPGGA,092457.000,3752.3840,S,14501.4519,E,2,09,1.06,-91.0,M,-4.2,M,0000,0000*7B
$GPGSA,A,3,19,04,18,22,27,14,21,193,24,,,,1.35,1.06,0.83*32
$GPRMC,092457.000,A,3752.3840,S,14501.4519,E,2.41,104.82,040315,,,D*74
$GPVTG,104.82,T,,M,2.41,N,4.47,K,D*37
$GPGGA,092458.000,3752.3845,S,14501.4531,E,2,09,1.19,-91.0,M,-4.2,M,0000,0000*75
$GPGSA,A,3,19,04,18,22,27,14,21,193,24,,,,1.49,1.19,0.90*35
$GPGSV,3,1,12,193,81,245,34,22,71,180,38,14,58,359,30,27,51,293,36*42
$GPGSV,3,2,12,42,46,000,29,18,42,121,39,19,42,245,29,21,25,059,36*78
$GPGSV,3,3,12,24,18,115,19,04,17,232,25,32,15,279,27,11,07,228,19*75
$GPRMC,092458.000,A,3752.3845,S,14501.4531,E,2.25,102.97,040315,,,D*74
$GPVTG,102.97,T,,M,2.25,N,4.16,K,D*33
$GPGGA,092459.000,3752.3847,S,14501.4556,E,2,09,1.28,-90.7,M,-4.2,M,0000,0000*73
$GPGSA,A,3,19,04,18,22,27,14,21,193,24,,,,1.57,1.28,0.90*38
$GPRMC,092459.000,A,3752.3847,S,14501.4556,E,1.85,100.99,040315,,,D*73
$GPVTG,100.99,T,,M,1.85,N,3.43,K,D*31
$GPGGA,092500.000,3752.3821,S,14501.4555,E,2,09,1.06,-93.5,M,-4.2,M,0000,0000*70
$GPGSA,A,3,19,04,18,22,27,14,21,193,24,,,,1.35,1.06,0.83*32
$GPRMC,092500.000,A,3752.3821,S,14501.4555,E,2.41,114.53,040315,,,D*75
$GPVTG,114.53,T,,M,2.41,N,4.47,K,D*3A
$GPGGA,092501.000,3752.3786,S,14501.4551,E,2,09,1.06,-94.5,M,-4.2,M,0000,0000*70
$GPGSA,A,3,19,04,18,22,27,14,21,193,24,,,,1.35,1.06,0.83*32
$GPRMC,092501.000,A,3752.3786,S,14501.4551,E,2.21,99.70,040315,,,D*41
$GPVTG,99.70,T,,M,2.21,N,4.10,K,D*0B
$GPGGA,092502.000,3752.3764,S,14501.4583,E,2,09,1.06,-94.3,M,-4.2,M,0000,0000*76
$GPGSA,A,3,19,04,18,22,27,14,21,193,24,,,,1.35,1.06,0.83*32
$GPRMC,092502.000,A,3752.3764,S,14501.4583,E,1.82,104.28,040315,,,D*73
$GPVTG,104.28,T,,M,1.82,N,3.37,K,D*3B
$GPGGA,092503.000,3752.3749,S,14501.4597,E,2,09,1.06,-93.8,M,-4.2,M,0000,0000*71
$GPGSA,A,3,19,04,18,22,27,14,21,193,24,,,,1.35,1.06,0.83*32
$GPGSV,3,1,12,193,81,245,39,22,71,180,41,14,58,359,42,27,50,294,36*42
$GPGSV,3,2,12,42,46,000,37,18,42,121,29,19,42,245,39,21,25,059,40*76
$GPGSV,3,3,12,24,18,115,23,04,17,232,28,32,15,279,26,11,07,228,23*79
$GPRMC,092503.000,A,3752.3749,S,14501.4597,E,2.44,101.22,040315,,,D*7E
$GPVTG,101.22,T,,M,2.44,N,4.53,K,D*38
$GPGGA,092504.000,3752.3732,S,14501.4644,E,2,09,1.06,-92.4,M,-4.2,M,0000,0000*7A
$GPGSA,A,3,19,04,18,22,27,14,21,193,24,,,,1.35,1.06,0.83*32
$GPRMC,092504.000,A,3752.3732,S,14501.4644,E,2.67,102.25,040315,,,D*7D
$GPVTG,102.25,T,,M,2.67,N,4.95,K,D*37
$GPGGA,092505.000,3752.3721,S,14501.4680,E,2,09,1.06,-91.7,M,-4.2,M,0000,0000*71
$GPGSA,A,3,19,04,18,22,27,14,21,193,24,,,,1.35,1.06,0.83*32
$GPRMC,092505.000,A,3752.3721,S,14501.4680,E,2.70,105.54,040315,,,D*71
$GPVTG,105.54,T,,M,2.70,N,5.00,K,D*3D
$GPGGA,092506.000,3752.3714,S,14501.4681,E,2,09,1.06,-91.5,M,-4.2,M,0000,0000*77
$GPGSA,A,3,19,04,18,22,27,14,21,193,24,,,,1.35,1.06,0.83*32
$GPRMC,092506.000,A,3752.3714,S,14501.4681,E,2.38,94.35,040315,,,D*47
$GPVTG,94.35,T,,M,2.38,N,4.41,K,D*0B
$GPGGA,092507.000,3752.3710,S,14501.4683,E,2,09,1.06,-91.5,M,-4.2,M,0000,0000*70
$GPGSA,A,3,19,04,18,22,27,14,21,193,24,,,,1.35,1.06,0.83*32
$GPRMC,092507.000,A,3752.3710,S,14501.4683,E,1.63,65.80,040315,,,D*4D
$GPVTG,65.80,T,,M,1.63,N,3.02,K,D*06
$GPGGA,092508.000,3752.3708,S,14501.4685,E,2,09,1.06,-91.6,M,-4.2,M,0000,0000*73
$GPGSA,A,3,19,04,18,22,27,14,21,193,24,,,,1.35,1.06,0.83*32
$GPGSV,3,1,12,193,81,245,27,22,71,180,24,14,58,359,34,27,50,294,35*4C
$GPGSV,3,2,12,42,46,000,33,18,42,121,24,19,42,245,27,21,25,059,41*71
$GPGSV,3,3,12,24,18,115,19,04,17,232,26,32,15,279,28,11,07,228,22*71
$GPRMC,092508.000,A,3752.3708,S,14501.4685,E,1.83,90.41,040315,,,D*44
$GPVTG,90.41,T,,M,1.83,N,3.39,K,D*07
$GPGGA,092509.000,3752.3704,S,14501.4686,E,2,09,1.06,-91.7,M,-4.2,M,0000,0000*7C
$GPGSA,A,3,19,04,18,22,27,14,21,193,24,,,,1.35,1.06,0.83*32
$GPRMC,092509.000,A,3752.3704,S,14501.4686,E,1.88,95.84,040315,,,D*4D
$GPVTG,95.84,T,,M,1.88,N,3.48,K,D*06
$GPGGA,092510.000,3752.3702,S,14501.4688,E,2,09,1.06,-91.7,M,-4.2,M,0000,0000*7C
$GPGSA,A,3,19,04,18,22,27,14,21,193,24,,,,1.35,1.06,0.83*32
$GPRMC,092510.000,A,3752.3702,S,14501.4688,E,1.76,91.18,040315,,,D*4D
$GPVTG,91.18,T,,M,1.76,N,3.26,K,D*0E
$GPGGA,092511.000,3752.3700,S,14501.4686,E,2,09,1.06,-91.9,M,-4.2,M,0000,0000*7F
$GPGSA,A,3,19,04,18,22,27,14,21,193,24,,,,1.35,1.06,0.83*32
$GPRMC,092511.000,A,3752.3700,S,14501.4686,E,1.21,108.16,040315,,,D*7D
$GPVTG,108.16,T,,M,1.21,N,2.25,K,D*31
$GPGGA,092512.000,3752.3697,S,14501.4687,E,2,09,1.06,-92.2,M,-4.2,M,0000,0000*7A
$GPGSA,A,3,19,04,18,22,27,14,21,193,24,,,,1.35,1.06,0.83*32
$GPRMC,092512.000,A,3752.3697,S,14501.4687,E,1.54,94.31,040315,,,D*43
$GPVTG,94.31,T,,M,1.54,N,2.85,K,D*08
$GPGGA,092513.000,3752.3695,S,14501.4691,E,2,09,1.06,-92.4,M,-4.2,M,0000,0000*78
$GPGSA,A,3,19,04,18,22,27,14,21,193,24,,,,1.35,1.06,0.83*32
$GPGSV,3,1,12,193,81,245,21,22,71,180,30,14,58,359,31,27,50,294,28*46
$GPGSV,3,2,12,42,46,000,29,18,42,121,24,19,42,245,23,21,25,059,38*70
$GPGSV,3,3,12,24,18,115,18,04,17,232,26,32,15,279,24,11,07,228,23*7D
$GPRMC,092513.000,A,3752.3695,S,14501.4691,E,2.37,105.71,040315,,,D*7C
$GPVTG,105.71,T,,M,2.37,N,4.39,K,D*32
$GPGGA,092514.000,3752.3691,S,14501.4695,E,2,09,1.06,-92.4,M,-4.2,M,0000,0000*7F
$GPGSA,A,3,19,04,18,22,27,14,21,193,24,,,,1.35,1.06,0.83*32
$GPRMC,092514.000,A,3752.3691,S,14501.4695,E,2.01,99.83,040315,,,D*47
$GPVTG,99.83,T,,M,2.01,N,3.73,K,D*07
$GPGGA,092515.000,3752.3685,S,14501.4695,E,2,09,1.06,-92.5,M,-4.2,M,0000,0000*7A
$GPGSA,A,3,19,04,18,22,27,14,21,193,24,,,,1.35,1.06,0.83*32
$GPRMC,092515.000,A,3752.3685,S,14501.4695,E,1.77,69.60,040315,,,D*43
$GPVTG,69.60,T,,M,1.77,N,3.27,K,D*06
$GPGGA,092516.000,3752.3680,S,14501.4700,E,2,09,1.06,-92.8,M,-4.2,M,0000,0000*7C
$GPGSA,A,3,19,04,18,22,27,14,21,193,24,,,,1.35,1.06,0.83*32
$GPRMC,092516.000,A,3752.3680,S,14501.4700,E,1.81,82.77,040315,,,D*42
$GPVTG,82.77,T,,M,1.81,N,3.35,K,D*0F
$GPGGA,092517.000,3752.3679,S,14501.4709,E,2,09,1.06,-92.7,M,-4.2,M,0000,0000*7D
$GPGSA,A,3,19,04,18,22,27,14,21,193,24,,,,1.35,1.06,0.83*32
$GPRMC,092517.000,A,3752.3679,S,14501.4709,E,1.82,91.20,040315,,,D*4F
$GPVTG,91.20,T,,M,1.82,N,3.38,K,D*01
$GPGGA,092518.000,3752.3671,S,14501.4707,E,2,09,1.06,-92.9,M,-4.2,M,0000,0000*7A
$GPGSA,A,3,19,04,18,22,27,14,21,193,24,,,,1.35,1.06,0.83*32
$GPGSV,3,1,12,193,81,245,26,22,71,180,26,14,58,359,30,27,50,294,29*46
$GPGSV,3,2,12,42,46,000,28,18,42,121,24,19,42,245,21,21,25,059,37*7C
$GPGSV,3,3,12,24,18,115,18,04,17,232,24,32,15,279,24,11,07,228,22*7E
$GPRMC,092518.000,A,3752.3671,S,14501.4707,E,1.71,64.34,040315,,,D*45
$GPVTG,64.34,T,,M,1.71,N,3.17,K,D*0F
$GPGGA,092519.000,3752.3665,S,14501.4704,E,2,09,1.06,-92.5,M,-4.2,M,0000,0000*71
$GPGSA,A,3,19,04,18,22,27,14,21,193,24,,,,1.35,1.06,0.83*32
$GPRMC,092519.000,A,3752.3665,S,14501.4704,E,1.32,46.91,040315,,,D*4A
$GPVTG,46.91,T,,M,1.32,N,2.44,K,D*00
$GPGGA,092520.000,3752.3664,S,14501.4710,E,2,09,1.06,-92.5,M,-4.2,M,0000,0000*7F
$GPGSA,A,3,19,04,18,22,27,14,21,193,24,,,,1.35,1.06,0.83*32
$GPRMC,092520.000,A,3752.3664,S,14501.4710,E,1.88,89.60,040315,,,D*48
$GPVTG,89.60,T,,M,1.88,N,3.48,K,D*01
$GPGGA,092521.000,3752.3662,S,14501.4716,E,2,09,1.06,-92.5,M,-4.2,M,0000,0000*7E
$GPGSA,A,3,19,04,18,22,27,14,21,193,24,,,,1.35,1.06,0.83*32
$GPRMC,092521.000,A,3752.3662,S,14501.4716,E,2.27,88.36,040315,,,D*4D
$GPVTG,88.36,T,,M,2.27,N,4.21,K,D*0D
$GPGGA,092522.000,3752.3663,S,14501.4721,E,2,09,1.06,-92.2,M,-4.2,M,0000,0000*7F
$GPGSA,A,3,19,04,18,22,27,14,21,193,24,,,,1.35,1.06,0.83*32
$GPRMC,092522.000,A,3752.3663,S,14501.4721,E,2.34,97.00,040315,,,D*42
$GPVTG,97.00,T,,M,2.34,N,4.34,K,D*00
$GPGGA,092523.000,3752.3660,S,14501.4728,E,2,09,1.06,-92.1,M,-4.2,M,0000,0000*77
$GPGSA,A,3,19,04,18,22,27,14,21,193,24,,,,1.35,1.06,0.83*32
$GPGSV,3,1,12,193,81,245,26,22,71,180,24,14,59,359,36,27,50,294,31*4A
$GPGSV,3,2,12,42,46,000,27,18,42,121,22,19,42,245,21,21,25,059,38*7A
$GPGSV,3,3,12,24,18,115,19,04,17,232,20,32,15,279,24,11,07,228,18*72
$GPRMC,092523.000,A,3752.3660,S,14501.4728,E,2.46,95.87,040315,,,D*41
$GPVTG,95.87,T,,M,2.46,N,4.55,K,D*0F
$GPGGA,092524.000,3752.3658,S,14501.4735,E,2,09,1.06,-91.3,M,-4.2,M,0000,0000*76
$GPGSA,A,3,19,04,18,22,27,14,21,193,24,,,,1.35,1.06,0.83*32
$GPRMC,092524.000,A,3752.3658,S,14501.4735,E,2.45,92.45,040315,,,D*4B
$GPVTG,92.45,T,,M,2.45,N,4.55,K,D*05
$GPGGA,092525.000,3752.3655,S,14501.4736,E,2,09,1.06,-90.6,M,-4.2,M,0000,0000*7D
$GPGSA,A,3,19,04,18,22,27,14,21,193,24,,,,1.35,1.06,0.83*32
$GPRMC,092525.000,A,3752.3655,S,14501.4736,E,2.36,89.38,040315,,,D*40
$GPVTG,89.38,T,,M,2.36,N,4.37,K,D*05
$GPGGA,092526.000,3752.3652,S,14501.4738,E,2,09,1.06,-89.7,M,-4.2,M,0000,0000*7E
$GPGSA,A,3,19,04,18,22,27,14,21,193,24,,,,1.35,1.06,0.83*32
$GPRMC,092526.000,A,3752.3652,S,14501.4738,E,2.46,89.22,040315,,,D*46
$GPVTG,89.22,T,,M,2.46,N,4.56,K,D*0E
$GPGGA,092527.000,3752.3650,S,14501.4738,E,2,09,1.06,-88.1,M,-4.2,M,0000,0000*7A
$GPGSA,A,3,19,04,18,22,27,14,21,193,24,,,,1.35,1.06,0.83*32
$GPRMC,092527.000,A,3752.3650,S,14501.4738,E,2.38,86.27,040315,,,D*46
$GPVTG,86.27,T,,M,2.38,N,4.41,K,D*0B
$GPGGA,092528.000,3752.3652,S,14501.4744,E,2,09,1.06,-86.8,M,-4.2,M,0000,0000*7B
$GPGSA,A,3,19,04,18,22,27,14,21,193,24,,,,1.35,1.06,0.83*32
$GPGSV,3,1,12,193,81,245,40,22,71,180,28,14,59,359,41,27,50,294,35*42
$GPGSV,3,2,12,42,46,000,37,18,42,121,24,19,42,245,21,21,25,059,38*7D
$GPGSV,3,3,12,24,18,115,24,04,17,232,20,32,15,279,23,11,07,228,*72
$GPRMC,092528.000,A,3752.3652,S,14501.4744,E,2.63,86.63,040315,,,D*4E
$GPVTG,86.63,T,,M,2.63,N,4.88,K,D*00
$GPGGA,092529.000,3752.3651,S,14501.4744,E,2,09,1.06,-85.3,M,-4.2,M,0000,0000*71
$GPGSA,A,3,19,04,18,22,27,14,21,193,24,,,,1.35,1.06,0.83*32
$GPRMC,092529.000,A,3752.3651,S,14501.4744,E,2.78,105.55,040315,,,D*79
$GPVTG,105.55,T,,M,2.78,N,5.14,K,D*31
$GPGGA,092530.000,3752.3641,S,14501.4739,E,2,09,1.06,-84.9,M,-4.2,M,0000,0000*79
$GPGSA,A,3,19,04,18,22,27,14,21,193,24,,,,1.35,1.06,0.83*32
$GPRMC,092530.000,A,3752.3641,S,14501.4739,E,2.51,113.72,040315,,,D*73
$GPVTG,113.72,T,,M,2.51,N,4.66,K,D*3C
$GPGGA,092531.000,3752.3631,S,14501.4730,E,2,09,1.06,-84.6,M,-4.2,M,0000,0000*79
$GPGSA,A,3,19,04,18,22,27,14,21,193,24,,,,1.35,1.06,0.83*32
$GPRMC,092531.000,A,3752.3631,S,14501.4730,E,2.05,119.96,040315,,,D*7D
$GPVTG,119.96,T,,M,2.05,N,3.80,K,D*32
$GPGGA,092532.000,3752.3623,S,14501.4723,E,2,09,1.06,-84.3,M,-4.2,M,0000,0000*7E
$GPGSA,A,3,19,04,18,22,27,14,21,193,24,,,,1.35,1.06,0.83*32
$GPRMC,092532.000,A,3752.3623,S,14501.4723,E,2.13,105.67,040315,,,D*7B
$GPVTG,105.67,T,,M,2.13,N,3.94,K,D*33
$GPGGA,092533.000,3752.3622,S,14501.4726,E,2,09,1.06,-84.0,M,-4.2,M,0000,0000*78
$GPGSA,A,3,19,04,18,22,27,14,21,193,24,,,,1.35,1.06,0.83*32
$GPGSV,3,1,12,193,81,245,28,22,71,179,24,14,59,359,43,27,50,294,31*40
$GPGSV,3,2,12,42,46,000,36,18,42,121,32,19,42,245,21,21,25,059,40*74
$GPGSV,3,3,12,24,18,115,35,04,17,232,21,32,15,279,22,11,07,228,26*76
$GPRMC,092533.000,A,3752.3622,S,14501.4726,E,1.94,132.83,040315,,,D*7C
$GPVTG,132.83,T,,M,1.94,N,3.60,K,D*3A
$GPGGA,092534.000,3752.3622,S,14501.4730,E,2,09,1.06,-83.6,M,-4.2,M,0000,0000*79
$GPGSA,A,3,19,04,18,22,27,14,21,193,24,,,,1.35,1.06,0.83*32
$GPRMC,092534.000,A,3752.3622,S,14501.4730,E,1.83,111.82,040315,,,D*7A
$GPVTG,111.82,T,,M,1.83,N,3.39,K,D*30
$GPGGA,092535.000,3752.3614,S,14501.4721,E,2,09,1.06,-83.5,M,-4.2,M,0000,0000*7E
$GPGSA,A,3,19,04,18,22,27,14,21,193,24,,,,1.35,1.06,0.83*32
$GPRMC,092535.000,A,3752.3614,S,14501.4721,E,1.51,114.38,040315,,,D*75
$GPVTG,114.38,T,,M,1.51,N,2.80,K,D*38
$GPGGA,092536.000,3752.3614,S,14501.4712,E,2,09,1.06,-83.2,M,-4.2,M,0000,0000*7A
$GPGSA,A,3,19,04,18,22,27,14,21,193,24,,,,1.35,1.06,0.83*32
$GPRMC,092536.000,A,3752.3614,S,14501.4712,E,2.56,170.03,040315,,,D*78
$GPVTG,170.03,T,,M,2.56,N,4.74,K,D*3B
$GPGGA,092537.000,3752.3615,S,14501.4706,E,2,09,1.06,-83.0,M,-4.2,M,0000,0000*7D
$GPGSA,A,3,19,04,18,22,27,14,21,193,24,,,,1.35,1.06,0.83*32
$GPRMC,092537.000,A,3752.3615,S,14501.4706,E,0.93,206.72,040315,,,D*72
$GPVTG,206.72,T,,M,0.93,N,1.73,K,D*36
$GPGGA,092538.000,3752.3621,S,14501.4691,E,2,09,1.06,-80.7,M,-4.2,M,0000,0000*7E
$GPGSA,A,3,19,04,18,22,27,14,21,193,24,,,,1.35,1.06,0.83*32
$GPGSV,3,1,12,193,81,245,36,22,71,179,40,14,59,359,24,27,50,294,25*49
$GPGSV,3,2,12,42,46,000,25,18,42,121,38,19,42,245,21,21,25,059,30*7B
$GPGSV,3,3,12,24,18,115,37,04,17,232,22,32,15,279,19,11,07,228,24*7D
$GPRMC,092538.000,A,3752.3621,S,14501.4691,E,1.00,214.07,040315,,,D*7F
$GPVTG,214.07,T,,M,1.00,N,1.85,K,D*35
$GPGGA,092539.000,3752.3629,S,14501.4675,E,2,09,1.06,-78.1,M,-4.2,M,0000,0000*7C
$GPGSA,A,3,19,04,18,22,27,14,21,193,24,,,,1.35,1.06,0.83*32
$GPRMC,092539.000,A,3752.3629,S,14501.4675,E,0.25,225.33,040315,,,D*7F
$GPVTG,225.33,T,,M,0.25,N,0.46,K,D*38
$GPGGA,092540.000,3752.3634,S,14501.4671,E,2,09,1.06,-75.6,M,-4.2,M,0000,0000*70
$GPGSA,A,3,19,04,18,22,27,14,21,193,24,,,,1.35,1.06,0.83*32
$GPRMC,092540.000,A,3752.3634,S,14501.4671,E,0.21,200.42,040315,,,D*7C
$GPVTG,200.42,T,,M,0.21,N,0.39,K,D*35
$GPGGA,092541.000,3752.3640,S,14501.4655,E,2,09,1.06,-73.4,M,-4.2,M,0000,0000*70
$GPGSA,A,3,19,04,18,22,27,14,21,193,24,,,,1.35,1.06,0.83*32
$GPRMC,092541.000,A,3752.3640,S,14501.4655,E,0.25,181.72,040315,,,D*75
$GPVTG,181.72,T,,M,0.25,N,0.47,K,D*31
$GPGGA,092542.000,3752.3644,S,14501.4644,E,2,09,1.06,-71.3,M,-4.2,M,0000,0000*72
$GPGSA,A,3,19,04,18,22,27,14,21,193,24,,,,1.35,1.06,0.83*32
$GPRMC,092542.000,A,3752.3644,S,14501.4644,E,0.27,201.34,040315,,,D*79
$GPVTG,201.34,T,,M,0.27,N,0.50,K,D*3C
$GPGGA,092543.000,3752.3645,S,14501.4643,E,2,09,1.06,-71.3,M,-4.2,M,0000,0000*75
$GPGSA,A,3,19,04,18,22,27,14,21,193,24,,,,1.35,1.06,0.83*32
$GPGSV,3,1,12,193,81,244,40,22,71,179,44,14,59,359,35,27,50,294,23*4B
$GPGSV,3,2,12,42,46,000,29,18,42,121,41,19,42,245,23,21,25,059,27*7D
$GPGSV,3,3,12,24,18,115,34,04,17,232,22,32,15,279,18,11,07,228,25*7E
$GPRMC,092543.000,A,3752.3645,S,14501.4643,E,0.17,296.10,040315,,,D*75
$GPVTG,296.10,T,,M,0.17,N,0.32,K,D*33
$GPGGA,092544.000,3752.3645,S,14501.4643,E,2,09,1.06,-71.3,M,-4.2,M,0000,0000*72
$GPGSA,A,3,19,04,18,22,27,14,21,193,24,,,,1.35,1.06,0.83*32
$GPRMC,092544.000,A,3752.3645,S,14501.4643,E,0.17,240.89,040315,,,D*79
$GPVTG,240.89,T,,M,0.17,N,0.31,K,D*3B
$GPGGA,092545.000,3752.3645,S,14501.4642,E,2,09,1.06,-71.3,M,-4.2,M,0000,0000*72
$GPGSA,A,3,19,04,18,22,27,14,21,193,24,,,,1.35,1.06,0.83*32
$GPRMC,092545.000,A,3752.3645,S,14501.4642,E,0.05,249.52,040315,,,D*75
$GPVTG,249.52,T,,M,0.05,N,0.10,K,D*34
$GPGGA,092546.000,3752.3645,S,14501.4642,E,2,09,1.06,-71.3,M,-4.2,M,0000,0000*71
$GPGSA,A,3,19,04,18,22,27,14,21,193,24,,,,1.35,1.06,0.83*32
$GPRMC,092546.000,A,3752.3645,S,14501.4642,E,0.13,341.73,040315,,,D*7B
$GPVTG,341.73,T,,M,0.13,N,0.24,K,D*3E
$GPGGA,092547.000,3752.3645,S,14501.4641,E,2,09,1.06,-71.3,M,-4.2,M,0000,0000*73
$GPGSA,A,3,19,04,18,22,27,14,21,193,24,,,,1.35,1.06,0.83*32
$GPRMC,092547.000,A,3752.3645,S,14501.4641,E,0.14,242.68,040315,,,D*76
$GPVTG,242.68,T,,M,0.14,N,0.26,K,D*33
$GPGGA,092548.000,3752.3645,S,14501.4641,E,2,09,1.06,-71.3,M,-4.2,M,0000,0000*7C
$GPGSA,A,3,19,04,18,22,27,14,21,193,24,,,,1.35,1.06,0.83*32
$GPGSV,3,1,12,193,81,244,39,22,71,179,43,14,59,359,37,27,50,294,24*47
$GPGSV,3,2,12,42,46,000,31,18,42,121,43,19,42,245,18,21,25,059,30*78
$GPGSV,3,3,12,24,18,115,36,04,17,232,19,32,15,279,21,11,07,228,27*7C
$GPRMC,092548.000,A,3752.3645,S,14501.4641,E,0.05,330.01,040315,,,D*72
$GPVTG,330.01,T,,M,0.05,N,0.09,K,D*35
$GPGGA,092549.000,3752.3645,S,14501.4641,E,2,09,1.06,-71.3,M,-4.2,M,0000,0000*7D
$GPGSA,A,3,19,04,18,22,27,14,21,193,24,,,,1.35,1.06,0.83*32
$GPRMC,092549.000,A,3752.3645,S,14501.4641,E,0.03,331.61,040315,,,D*72
$GPVTG,331.61,T,,M,0.03,N,0.06,K,D*3B
$GPGGA,092550.000,3752.3645,S,14501.4640,E,2,09,1.06,-71.3,M,-4.2,M,0000,0000*74
$GPGSA,A,3,19,04,18,22,27,14,21,193,24,,,,1.35,1.06,0.83*32
$GPRMC,092550.000,A,3752.3645,S,14501.4640,E,0.09,321.57,040315,,,D*75
$GPVTG,321.57,T,,M,0.09,N,0.16,K,D*34
$GPGGA,092551.000,3752.3645,S,14501.4640,E,2,09,1.06,-71.3,M,-4.2,M,0000,0000*75
$GPGSA,A,3,19,04,18,22,27,14,21,193,24,,,,1.35,1.06,0.83*32
$GPRMC,092551.000,A,3752.3645,S,14501.4640,E,0.16,273.15,040315,,,D*7A
$GPVTG,273.15,T,,M,0.16,N,0.30,K,D*3E
$GPGGA,092552.000,3752.3645,S,14501.4639,E,2,09,1.06,-71.3,M,-4.2,M,0000,0000*78
$GPGSA,A,3,19,04,18,22,27,14,21,193,24,,,,1.35,1.06,0.83*32
$GPRMC,092552.000,A,3752.3645,S,14501.4639,E,0.26,287.75,040315,,,D*79
$GPVTG,287.75,T,,M,0.26,N,0.48,K,D*3F
$GPGGA,092553.000,3752.3645,S,14501.4638,E,2,09,1.06,-71.3,M,-4.2,M,0000,0000*78
$GPGSA,A,3,19,04,18,22,27,14,21,193,24,,,,1.35,1.06,0.83*32
$GPGSV,3,1,12,193,81,244,42,22,71,179,43,14,59,359,34,27,50,294,21*4D
$GPGSV,3,2,12,42,46,000,28,18,42,121,42,19,42,245,19,21,25,059,31*71
$GPGSV,3,3,12,24,18,115,34,04,17,232,21,32,15,279,21,11,07,228,26*74
$GPRMC,092553.000,A,3752.3645,S,14501.4638,E,0.53,290.03,040315,,,D*7C
$GPVTG,290.03,T,,M,0.53,N,0.98,K,D*37
$GPGGA,092554.000,3752.3645,S,14501.4636,E,2,09,1.06,-71.2,M,-4.2,M,0000,0000*70
$GPGSA,A,3,19,04,18,22,27,14,21,193,24,,,,1.35,1.06,0.83*32
$GPRMC,092554.000,A,3752.3645,S,14501.4636,E,0.30,298.43,040315,,,D*7C
$GPVTG,298.43,T,,M,0.30,N,0.56,K,D*3C
$GPGGA,092555.000,3752.3644,S,14501.4635,E,2,09,1.06,-71.2,M,-4.2,M,0000,0000*73
$GPGSA,A,3,19,04,18,22,27,14,21,193,24,,,,1.35,1.06,0.83*32
$GPRMC,092555.000,A,3752.3644,S,14501.4635,E,0.12,290.28,040315,,,D*7A
$GPVTG,290.28,T,,M,0.12,N,0.23,K,D*3B
$GPGGA,092556.000,3752.3644,S,14501.4635,E,2,09,1.06,-71.2,M,-4.2,M,0000,0000*70
$GPGSA,A,3,19,04,18,22,27,14,21,193,24,,,,1.35,1.06,0.83*32
$GPRMC,092556.000,A,3752.3644,S,14501.4635,E,0.09,292.08,040315,,,D*73
$GPVTG,292.08,T,,M,0.09,N,0.17,K,D*36
$GPGGA,092557.000,3752.3644,S,14501.4634,E,2,09,1.06,-71.2,M,-4.2,M,0000,0000*70
$GPGSA,A,3,19,04,18,22,27,14,21,193,24,,,,1.35,1.06,0.83*32
$GPRMC,092557.000,A,3752.3644,S,14501.4634,E,0.03,238.25,040315,,,D*76
$GPVTG,238.25,T,,M,0.03,N,0.06,K,D*33
$GPGGA,092558.000,3752.3644,S,14501.4634,E,2,09,1.06,-71.1,M,-4.2,M,0000,0000*7C
$GPGSA,A,3,19,04,18,22,27,14,21,193,24,,,,1.35,1.06,0.83*32
$GPGSV,3,1,12,193,81,244,42,22,71,179,47,14,59,359,30,27,50,294,27*4B
$GPGSV,3,2,12,42,46,000,28,18,42,121,42,19,42,245,18,21,25,059,30*71
$GPGSV,3,3,12,24,18,115,40,04,17,232,27,32,15,279,22,11,08,228,27*7C
$GPRMC,092558.000,A,3752.3644,S,14501.4634,E,0.15,261.90,040315,,,D*7C
$GPVTG,261.90,T,,M,0.15,N,0.29,K,D*3B
$GPGGA,092559.000,3752.3645,S,14501.4634,E,2,09,1.06,-71.1,M,-4.2,M,0000,0000*7C
$GPGSA,A,3,19,04,18,22,27,14,21,193,24,,,,1.35,1.06,0.83*32
$GPRMC,092559.000,A,3752.3645,S,14501.4634,E,0.14,262.60,040315,,,D*71
$GPVTG,262.60,T,,M,0.14,N,0.26,K,D*39
$GPGGA,092600.000,3752.3645,S,14501.4633,E,2,09,1.06,-71.1,M,-4.2,M,0000,0000*74
$GPGSA,A,3,19,04,18,22,27,14,21,193,24,,,,1.35,1.06,0.83*32
$GPRMC,092600.000,A,3752.3645,S,14501.4633,E,0.16,235.88,040315,,,D*7F
$GPVTG,235.88,T,,M,0.16,N,0.29,K,D*30
$GPGGA,092601.000,3752.3645,S,14501.4632,E,2,09,1.06,-71.1,M,-4.2,M,0000,0000*74
$GPGSA,A,3,19,04,18,22,27,14,21,193,24,,,,1.35,1.06,0.83*32
$GPRMC,092601.000,A,3752.3645,S,14501.4632,E,0.15,182.12,040315,,,D*70
$GPVTG,182.12,T,,M,0.15,N,0.28,K,D*3E
$GPGGA,092602.000,3752.3646,S,14501.4632,E,2,09,1.06,-71.1,M,-4.2,M,0000,0000*74
$GPGSA,A,3,19,04,18,22,27,14,21,193,24,,,,1.35,1.06,0.83*32
$GPRMC,092602.000,A,3752.3646,S,14501.4632,E,0.18,115.26,040315,,,D*74
$GPVTG,115.26,T,,M,0.18,N,0.34,K,D*37
$GPGGA,092603.000,3752.3646,S,14501.4633,E,2,09,1.06,-71.1,M,-4.2,M,0000,0000*74
$GPGSA,A,3,19,04,18,22,27,14,21,193,24,,,,1.35,1.06,0.83*32
$GPGSV,3,1,12,193,81,244,42,22,71,179,47,14,59,359,30,27,50,294,27*4B
$GPGSV,3,2,12,42,46,000,28,18,42,121,42,19,42,246,21,21,25,059,31*79
$GPGSV,3,3,12,24,18,115,39,04,17,232,28,32,15,279,22,11,08,228,27*7D
$GPRMC,092603.000,A,3752.3646,S,14501.4633,E,0.03,197.20,040315,,,D*72
$GPVTG,197.20,T,,M,0.03,N,0.05,K,D*33
$GPGGA,092604.000,3752.3646,S,14501.4633,E,2,09,1.06,-71.1,M,-4.2,M,0000,0000*73
$GPGSA,A,3,19,04,18,22,27,14,21,193,24,,,,1.35,1.06,0.83*32
$GPRMC,092604.000,A,3752.3646,S,14501.4633,E,0.09,213.59,040315,,,D*7E
$GPVTG,213.59,T,,M,0.09,N,0.16,K,D*3A
$GPGGA,092605.000,3752.3646,S,14501.4632,E,2,09,1.06,-71.1,M,-4.2,M,0000,0000*73
$GPGSA,A,3,19,04,18,22,27,14,21,193,24,,,,1.35,1.06,0.83*32
$GPRMC,092605.000,A,3752.3646,S,14501.4632,E,0.09,78.35,040315,,,D*4B
$GPVTG,78.35,T,,M,0.09,N,0.17,K,D*0E
$GPGGA,092606.000,3752.3646,S,14501.4633,E,2,09,1.06,-71.0,M,-4.2,M,0000,0000*70
$GPGSA,A,3,19,04,18,22,27,14,21,193,24,,,,1.35,1.06,0.83*32
$GPRMC,092606.000,A,3752.3646,S,14501.4633,E,0.10,90.28,040315,,,D*4B
$GPVTG,90.28,T,,M,0.10,N,0.19,K,D*02
$GPGGA,092607.000,3752.3646,S,14501.4633,E,2,09,1.06,-71.0,M,-4.2,M,0000,0000*71
$GPGSA,A,3,19,04,18,22,27,14,21,193,24,,,,1.35,1.06,0.83*32
$GPRMC,092607.000,A,3752.3646,S,14501.4633,E,0.12,217.20,040315,,,D*7D
$GPVTG,217.20,T,,M,0.12,N,0.21,K,D*3E
$GPGGA,092608.000,3752.3647,S,14501.4633,E,2,09,1.06,-71.0,M,-4.2,M,0000,0000*7F
$GPGSA,A,3,19,04,18,22,27,14,21,193,24,,,,1.35,1.06,0.83*32
$GPGSV,3,1,12,193,81,244,41,22,71,178,47,14,59,359,28,27,50,294,27*40
$GPGSV,3,2,12,42,46,000,28,18,42,121,43,19,42,246,24,21,25,059,24*79
$GPGSV,3,3,12,24,18,115,39,04,17,232,29,32,15,279,21,11,08,228,30*79
$GPRMC,092608.000,A,3752.3647,S,14501.4633,E,0.05,156.30,040315,,,D*72
$GPVTG,156.30,T,,M,0.05,N,0.09,K,D*35
$GPGGA,092609.000,3752.3647,S,14501.4633,E,2,09,1.06,-71.0,M,-4.2,M,0000,0000*7E
$GPGSA,A,3,19,04,18,22,27,14,21,193,24,,,,1.35,1.06,0.83*32
$GPRMC,092609.000,A,3752.3647,S,14501.4633,E,0.07,206.40,040315,,,D*70
$GPVTG,206.40,T,,M,0.07,N,0.12,K,D*3C
$GPGGA,092610.000,3752.3647,S,14501.4633,E,2,09,1.06,-70.9,M,-4.2,M,0000,0000*7E
$GPGSA,A,3,19,04,18,22,27,14,21,193,24,,,,1.35,1.06,0.83*32
$GPRMC,092610.000,A,3752.3647,S,14501.4633,E,0.11,248.16,040315,,,D*76
$GPVTG,248.16,T,,M,0.11,N,0.20,K,D*33
$GPGGA,092611.000,3752.3647,S,14501.4632,E,2,09,1.06,-70.9,M,-4.2,M,0000,0000*7E
$GPGSA,A,3,19,04,18,22,27,14,21,193,24,,,,1.35,1.06,0.83*32
$GPRMC,092611.000,A,3752.3647,S,14501.4632,E,0.11,210.65,040315,,,D*7F
$GPVTG,210.65,T,,M,0.11,N,0.20,K,D*3A
$GPGGA,092612.000,3752.3648,S,14501.4632,E,2,08,1.21,-70.9,M,-4.2,M,0000,0000*76
$GPGSA,A,3,19,04,18,22,27,21,193,24,,,,,1.47,1.21,0.83*37
$GPRMC,092612.000,A,3752.3648,S,14501.4632,E,0.19,147.10,040315,,,D*78
$GPVTG,147.10,T,,M,0.19,N,0.35,K,D*35
$GPGGA,092613.000,3752.3648,S,14501.4631,E,2,09,1.06,-70.8,M,-4.2,M,0000,0000*71
$GPGSA,A,3,19,04,18,22,27,14,21,193,24,,,,1.35,1.06,0.83*32
$GPGSV,3,1,12,193,81,244,44,22,71,178,45,14,59,359,28,27,50,294,20*40
$GPGSV,3,2,12,42,46,000,27,18,42,121,43,19,42,246,24,21,25,059,32*71
$GPGSV,3,3,12,24,18,115,30,04,17,232,21,32,15,279,20,11,08,228,22*7A
$GPRMC,092613.000,A,3752.3648,S,14501.4631,E,0.11,185.28,040315,,,D*77
$GPVTG,185.28,T,,M,0.11,N,0.21,K,D*3D
$GPGGA,092614.000,3752.3647,S,14501.4629,E,2,09,1.06,-70.8,M,-4.2,M,0000,0000*70
$GPGSA,A,3,19,04,18,22,27,14,21,193,24,,,,1.35,1.06,0.83*32
$GPRMC,092614.000,A,3752.3647,S,14501.4629,E,0.59,71.80,040315,,,D*42
$GPVTG,71.80,T,,M,0.59,N,1.09,K,D*02
$GPGGA,092615.000,3752.3596,S,14501.4568,E,2,09,1.06,-68.4,M,-4.2,M,0000,0000*7D
$GPGSA,A,3,19,04,18,22,27,14,21,193,24,,,,1.35,1.06,0.83*32
$GPRMC,092615.000,A,3752.3596,S,14501.4568,E,1.01,99.50,040315,,,D*4D
$GPVTG,99.50,T,,M,1.01,N,1.88,K,D*0C
$GPGGA,092616.000,3752.3551,S,14501.4540,E,2,09,1.06,-66.1,M,-4.2,M,0000,0000*74
$GPGSA,A,3,19,04,18,22,27,14,21,193,24,,,,1.35,1.06,0.83*32
$GPRMC,092616.000,A,3752.3551,S,14501.4540,E,1.42,89.90,040315,,,D*45
$GPVTG,89.90,T,,M,1.42,N,2.62,K,D*01
$GPGGA,092617.000,3752.3524,S,14501.4506,E,2,09,1.06,-64.5,M,-4.2,M,0000,0000*73
$GPGSA,A,3,19,04,18,22,27,14,21,193,24,,,,1.35,1.06,0.83*32
$GPRMC,092617.000,A,3752.3524,S,14501.4506,E,1.58,98.72,040315,,,D*43
$GPVTG,98.72,T,,M,1.58,N,2.93,K,D*08
$GPGGA,092618.000,3752.3494,S,14501.4497,E,2,09,1.06,-63.1,M,-4.2,M,0000,0000*7C
$GPGSA,A,3,19,04,18,22,27,14,21,193,24,,,,1.35,1.06,0.83*32
$GPGSV,3,1,12,193,81,244,41,22,71,178,44,14,59,359,39,27,50,294,33*46
$GPGSV,3,2,12,42,46,000,36,18,42,121,38,19,42,246,35,21,25,059,40*78
$GPGSV,3,3,12,24,18,115,29,04,17,232,28,32,15,279,20,11,08,228,22*7B
